country_id,name,tenants,city,capacity,opened_year,renovated_years,closed_year,lat,lng,photo_filename
Afghanistan,Ghazi Olympic Stadium,,"Kabul , Afghanistan",25000,1923,2011,,34.51861,69.19389,ghazi-olympic-stadium-103233.jpg
Albania,Stadiumi Laçi,Klubi i Futbollit Laçi,"Laç, Albania",2271,2010,2010,,41.642472,19.71167,stadiumi-laci-1300029.jpg
Albania,Stadiumi Abdurrahman Roza Haxhiu,Klubi Futbollit Lushnja,"Lushnjë , Albania",8500,1961,"2003, 2015, 2017",,40.935425,19.7096444,stadiumi-abdurrahman-roza-haxhiu-1300087.jpg
Albania,Elbasan Arena,,"Elbasan , Albania",12800,1967,"2001, 2014",,41.115875,20.0919917,elbasan-arena-1300025.jpg
Albania,Stadiumi Gjirokastra,,"Gjirokastër , Albania",8400,1972,2016,,40.0812111,20.1380917,stadiumi-gjirokastra-1300033.jpg
Albania,Stadiumi Loni Papuçiu,Klubi i Futbollit Apolonia Fier,"Fier, Albania",6800,1958,2014,,40.72083,19.55222,stadiumi-loni-papuciu-1300020.jpg
Albania,Stadiumi Selman Stërmasi,Klubi i Futbollit Tirana,"Tirana , Albania",9500,1956,"1995, 2005, 2015",,41.319006,19.811196,stadiumi-selman-stermasi-8502565.jpg
Albania,Stadiumi Loro Boriçi,Klubi i Futbollit Vllaznia Shkodër,"Shkodër , Albania",16022,1952,"1988, 2001, 2016",,42.07,19.50667,stadiumi-loro-borici-1300041.jpg
Albania,Air Albania Stadium,,"Tirana , Albania",22500,2019,,,41.31833,19.82417,air-albania-stadium-2000001344.jpg
Albania,Stadiumi Skënderbeu,Klubi Futbollistik Skënderbeu Korçë,"Korçë , Albania",5800,1957,2011,,40.62583,20.78278,stadiumi-skenderbeu-1300035.jpg
Albania,Stadiumi Tomori,Futboll Klub Tomori Berat,"Berat , Albania",19230,1985,2011,,40.69889,19.96444,stadiumi-tomori-1300040.jpg
Albania,Kukës Arena,Futboll Klub Kukësi,"Kukës , Albania",6322,2022,,,42.07889,20.42028,kukes-arena-11021001.jpg
Albania,Stadiumi Flamurtari,Flamurtari Football Club,"Vlorë , Albania",5600,1961,"1975, 2004, 2013",,40.4559222,19.4889861,stadiumi-flamurtari-1300026.jpg
Albania,Stadiumi Brian Filipi,Klubi Sportiv Besëlidhja Lezhë,"Lezhë , Albania",5000,,,,41.7760556,19.6446611,stadiumi-brian-filipi-1300024.jpg
Albania,Stadiumi Niko Dovana,Klubi Futbollit Teuta Durrës,"Durrës , Albania",12040,1965,2017,,41.3260806,19.4498556,stadiumi-niko-dovana-1300038.jpg
Albania,Stadiumi Redi Maloku,Klubi i Futbollit Iliria Fushë-Krujë,"Fushë Krujë , Albania",3000,1991,"2012, 2024",,41.47639,19.72444,stadiumi-redi-maloku-11000278.jpg
Algeria,Stade Mustapha Tchaker,Union Sportive Madinet Blida,"Blida , Algeria",25000,2001,2023,,36.49028,2.84667,stade-mustapha-tchaker-7600042.jpg
Algeria,Stade Akid Lotfi,Widad Amel de Tlemcen,"Tlemcen , Algeria",20000,1976,2008,,34.8774,-1.3011,stade-akid-lotfi-105324.jpg
Algeria,Stade du 8 Mai 1945,Entente Sportive Sétifienne,"Sétif , Algeria",25000,1972,"1994, 1999, 2009",,36.18694,5.39306,stade-du-8-mai-1945-105329.jpg
Algeria,Stade Abed Hamdani,Association Sportive d'El Khroub,"El Khroub , Algeria",10000,,,,36.260596,6.687441,stade-abed-hamdani-8628601.jpg
Algeria,Stade Omar Hamadi,Union Sportive de la Médina d'Alger,"Algiers , Algeria",10000,1919,"1980, 2011",2022,36.801055,3.048111,stade-omar-hamadi-105332.jpg
Algeria,Stade Olympique du 5 Juillet,Mouloudia Club d'Alger,"Algiers , Algeria",64200,1972,"1999, 2003, 2008, 2015, 2017, 2022",,36.759889,2.995194,stade-olympique-du-5-juillet-103024.jpg
Algeria,Stade du 20 Août 1955,Chabab Ahly Bordj Bou Arréridj,"Bordj Bou Arréridj , Algeria",15000,1997,,,36.0667,4.7667,stade-du-20-aout-1955-5360156.jpg
Algeria,20 Août,Chabab Riadhi de Bélouizdad,"Algiers , Algeria",15000,1930,,,36.745633,3.078511,20-aout-105327.jpg
Algeria,Stade Mohamed Boumezrag,Amel Saad Olympic Chlef,"Chlef , Algeria",18000,1970,2004,,36.16157,1.308791,stade-mohamed-boumezrag-8625065.jpg
Algeria,Stade Habib Bouakeul,Association Sportive Madinet Oran,"Oran , Algeria",20000,1927,"1948, 1988, 2009, 2013",,35.67917,-0.67528,stade-habib-bouakeul-105325.jpg
Algeria,Stade du 1er Novembre,Chabab Aurès Batna,"Batna , Algeria",20000,1983,"1987, 1996, 2004, 2016",,35.55722,6.18778,stade-du-1er-novembre-105333.jpg
Algeria,Stade de l'Unité Maghrébine,Jeunesse Sportive Madinet Béjaïa,"Béjaïa , Algeria",17500,1987,2009,,36.749411,5.046539,stade-de-lunite-maghrebine-5360130.jpg
Algeria,Stade Mohamed Bensaid,Espérance Sportive de Mostaganem,"Mostaganem , Algeria",18000,1990,,,35.924,0.1052,stade-mohamed-bensaid-7600121.jpg
Algeria,Stade du 1er Novembre,Jeunesse Sportive de Kabylie,"Tizi Ouzou , Algeria",25000,1978,2007,,36.70694,4.05611,stade-du-1er-novembre-105331.jpg
Algeria,Stade du 1er Novembre,Union Sportive Madinet El Harrach,"Algiers , Algeria",8000,,,,36.73444,3.13139,stade-du-1er-novembre-5360132.jpg
Algeria,Stade du 5 Juillet,USM Marengo Hadjout,"Algiers , Algeria",64200,1972,"1999, 2003, 2008, 2015, 2017, 2022",,36.759889,2.995194,stade-du-5-juillet-7601796.jpg
Algeria,Stade Messaoud Zeggar,Mouloudia Chabab El Eulma,"El Eulma , Algeria",25000,1994,,,36.14417,5.7225,stade-messaoud-zeggar-8625323.jpg
Algeria,Stade du 20 Août 1955,Jeunesse Sportive de la Saoura,"Béchar , Algeria",20000,1953,"2012, 2013",,31.60556,-2.21833,stade-du-20-aout-1955-12035847.jpg
Algeria,Stade Ahmed Zabana,Mouloudia Club d'Oran,"Oran , Algeria",40000,1957,"1974, 1988, 2005, 2008, 2013",,35.683315,-0.636221,stade-ahmed-zabana-5340082.jpg
Algeria,Stade Mohamed Hamlaoui,Club Sportif Constantinois,"Constantine , Algeria",22968,1973,"2007, 2022",,36.34917,6.62583,stade-mohamed-hamlaoui-105328.jpg
Algeria,Stade du 24 Février 1956,Union Sportive Madinet Bel Abbès,"Sidi Bel Abbès , Algeria",45000,1981,,,35.185028,-0.622139,stade-du-24-fevrier-1956-105334.jpg
Algeria,Stade du 19 Mai 1956,Union Sportive Madinet Annaba,"Annaba , Algeria",56000,1987,2022,,36.8858,7.7331,stade-du-19-mai-1956-105335.jpg
Angola,Estádio Nacional de Ombaka,Jackson Garcia Futebol Clube,"Benguela, Angola",35000,2009,,,-12.54275,13.460006,estadio-nacional-de-ombaka-12012513.jpg
Angola,Estádio dos Coqueiros,Benfica de Luanda,"Luanda , Angola",12000,1947,2005,,-8.814293,13.226014,estadio-dos-coqueiros-23017923.jpg
Angola,Estádio França Ndalu,Clube Desportivo Primeiro de Agosto,"Luanda , Angola",20000,2023,,,-8.841302833,13.241706833,estadio-franca-ndalu-95053320.jpg
Angola,Estádio 11 de Novembro,,"Talatona , Angola",48500,2009,,,-8.969853,13.283491,estadio-11-de-novembro-12012512.jpg
Angola,Estádio da Cidadela,Progresso Associação do Sambizanga,"Luanda , Angola",40000,1972,1985,,-8.827389,13.255889,estadio-da-cidadela-103025.jpg
Argentina,"Julio Humberto Grondona, 'El Viaducto'",Arsenal Fútbol Club de Sarandí,"Sarandí, Argentina",18500,1964,2004,,-34.67833,-58.34028,julio-humberto-grondona-el-viaducto-108520.jpg
Argentina,Eduardo Gallardón,Club Atlético Los Andes,"Lomas de Zamora, Argentina",38000,1940,2013,,-34.75528,-58.42,eduardo-gallardon-102496.jpg
Argentina,Brigadier General Estanislao López,Club Atlético Colón de Santa Fe,"Santa Fe, Argentina",30835,1946,,,-31.6632167,-60.7253944,brigadier-general-estanislao-lopez-102463.jpg
Argentina,Alfredo Ramos,Club Comunicaciones,"Buenos Aires, Argentina",3500,1962,2020,,-34.5937222,-58.4885278,alfredo-ramos-952703.jpg
Argentina,Fragata Presidente Sarmiento,Club Almirante Brown,"Isidro Casanova , Argentina",25000,1969,,,-34.6949806,-58.5868139,fragata-presidente-sarmiento-102471.jpg
Argentina,Antonio Romero,Club Sportivo Patria de Formosa,"Corrientes, Argentina",14000,1986,,,,,antonio-romero-965379.jpg
Argentina,Monumental José Fierro,Club Atlético Tucumán,"Tucumán, Argentina",35200,1922,,,-26.81278,-65.19917,monumental-jose-fierro-3100077.jpg
Argentina,"Presidente Perón, 'El Cilindro de Avellaneda'",Racing Club de Avellaneda,"Avellaneda , Argentina",50880,1950,1995,,-34.6675,-58.36861,presidente-peron-el-cilindro-de-avellaneda-102454.jpg
Argentina,Malvinas Argentinas,Club Atlético San Miguel,"Mendoza, Argentina",42000,1978,,,-32.88972,-68.88,malvinas-argentinas-108550.jpg
Argentina,Eva Perón,Club Atlético Sarmiento de Junín,"Junín, Argentina",23156,1951,,,-34.5853556,-60.9292778,eva-peron-3101517.jpg
Argentina,"Libertadores de América, 'Ricardo E. Bochini'",Club Atlético Independiente,"Avellaneda, Argentina",42069,2009,,,-34.6702667,-58.3709694,libertadores-de-america-ricardo-e-bochini-102450.jpg
Argentina,"Alberto J. Armando, 'La Bombonera'",Club Atlético Boca Juniors,"Buenos Aires , Argentina",54000,1940,1995,,-34.63565,-58.36465,alberto-j-armando-la-bombonera-102443.jpg
Argentina,Norberto 'Tito' Tomaghello,Club Social y Deportivo Defensa y Justicia,"Florencio Varela, Argentina",13559,1978,,,-34.8217528,-58.2865111,norberto-tito-tomaghello-108527.jpg
Argentina,"Juan Domingo Perón, 'Monumental de Alta Córdoba'",Instituto Atlético Central Córdoba,"Córdoba , Argentina",26000,1951,"1960, 1981, 1995",,-31.3837,-64.1803028,juan-domingo-peron-monumental-de-alta-cordoba-108537.jpg
Argentina,Alfredo Terrera,Club Central Córdoba de Santiago del Estero,"Santiago del Estero, Argentina",20000,1946,,,-27.79389,-64.26417,alfredo-terrera-14018429.jpg
Argentina,Ciudad de Caseros,Club Atlético Estudiantes de Buenos Aires,"Caseros, Argentina",16740,1963,"2010, 2011",,-34.606056,-58.55675,ciudad-de-caseros-108533.jpg
Argentina,"Marcelo Alberto Bielsa, 'Coloso del Parque'",Club Atlético Newell's Old Boys,"Rosario, Argentina",49000,1911,,,-32.956056,-60.661444,marcelo-alberto-bielsa-coloso-del-parque-102452.jpg
Argentina,José Antonio Romero Feris,Club Atlético Huracán de Corrientes,"Corrientes, Argentina",14000,1986,,,,,jose-antonio-romero-feris-102960.jpg
Argentina,Padre Ernesto Martearena,Centro Juventud Antoniana de Salta,"Salta, Argentina",21000,2001,,,-24.82083,-65.41917,padre-ernesto-martearena-951442.jpg
Argentina,15 de Abril,Club Atlético Unión de Santa Fe,"Santa Fe, Argentina",29000,1929,"1931, 1943, 1975, 1981, 2003, 2019",,-31.63194,-60.71583,15-de-abril-102469.jpg
Argentina,Comandante Andrés Guacurarí,Club Mutual Crucero del Norte,"Garupá, Argentina",15000,2003,,,,,comandante-andres-guacurari-14022188.jpg
Argentina,23 de Agosto,Club Atlético Gimnasia y Esgrima de Jujuy,"San Salvador de Jujuy, Argentina",25000,1973,,,-24.19861,-65.29083,23-de-agosto-108535.jpg
Argentina,Malvinas Argentinas,Club Deportivo Godoy Cruz Antonio Tomba,"Mendoza, Argentina",42000,1978,,,-32.88972,-68.88,malvinas-argentinas-951441.jpg
Argentina,Gigante de Arroyito,Club Atlético Rosario Central,"Rosario, Argentina",46955,1926,"1957, 1963, 1968, 1974, 1978, 2023, 2024",,-32.9139972,-60.6745667,gigante-de-arroyito-108544.jpg
Argentina,Centenario Ciudad de Quilmes,Quilmes Atlético Club,"Quilmes, Argentina",30200,1995,,,-34.741778,-58.251889,centenario-ciudad-de-quilmes-102488.jpg
Argentina,"Pedro Bidegain, 'Nuevo Gasómetro'",Club Atlético San Lorenzo de Almagro,"Buenos Aires, Argentina",47964,1993,,,-34.6520639,-58.4401194,pedro-bidegain-nuevo-gasometro-102457.jpg
Argentina,"Ciudad de Lanús-Néstor Díaz Pérez, 'La Fortaleza'",Club Atlético Lanús,"Lanús, Argentina",45319,1929,,,-34.717667,-58.383806,ciudad-de-lanus-nestor-diaz-perez-la-fortaleza-102451.jpg
Argentina,Mâs Monumental,Club Atlético River Plate,"Buenos Aires, Argentina",85018,1938,"1958, 1978, 2020, 2028",,-34.54528,-58.44972,mas-monumental-102455.jpg
Argentina,Estadio del Centenario,Club Atlético de la Juventud Alianza de San Juan,"San Juan , Argentina",25286,2011,2021,,-31.611946,-68.527479,estadio-del-centenario-3101445.jpg
Argentina,Presbítero Bartolomé Grella,Club Atlético Patronato de la Juventud Católica,"Paraná, Argentina",14000,1956,"2010, 2023",,,,presbitero-bartolome-grella-3101458.jpg
Argentina,Víctor Antonio Legrotaglie,Club Atlético Gimnasia y Esgrima de Mendoza,Mendoza Argentina,11000,1934,2011,,-32.8842,-68.8636,victor-antonio-legrotaglie-956892.jpg
Argentina,"José Eduardo Nehin, 'El Serpentario'",Club Sportivo Desamparados,"San Juan, Argentina",18000,1960,2023,,,,jose-eduardo-nehin-el-serpentario-961375.jpg
Argentina,"Julio César Villagra, 'El Gigante de Alberdi'",Club Atlético Belgrano,"Córdoba, Argentina",38000,1929,1997,,-31.40361,-64.20639,julio-cesar-villagra-el-gigante-de-alberdi-14034924.jpg
Argentina,José Amalfitani,Club Atlético Vélez Sarsfield,"Buenos Aires , Argentina",49540,1951,,,-34.635375,-58.5207111,jose-amalfitani-102459.jpg
Argentina,José María Minella,Club Atlético Aldosivi,"Mar del Plata, Argentina",35180,1978,,,-38.017944,-57.582333,jose-maria-minella-3100076.jpg
Argentina,Municipal de Comodoro Rivadavia,Comisión de Actividades Infantiles,"Comodoro Rivadavia, Argentina",8300,1942,,,,,municipal-de-comodoro-rivadavia-951335.jpg
Argentina,Juan Pasquale,Club Atlético Defensores de Belgrano,"Buenos Aires, Argentina",9000,1910,,,-34.5412,-58.4618,juan-pasquale-3101505.jpg
Argentina,Nueva España,Club Social Deportivo y Cultural Español,"Buenos Aires, Argentina",32500,1981,,,,,nueva-espana-102444.jpg
Argentina,Raúl Conti,Club Guillermo Brown de Puerto Madryn,Puerto Madryn Argentina,15000,1967,,,-42.7780222,-65.0383944,raul-conti-958200.jpg
Argentina,Arq. Ricardo Etcheverri,Club Ferro Carril Oeste,"Buenos Aires, Argentina",24442,1905,,,-34.6185,-58.4476,arq-ricardo-etcheverri-108534.jpg
Argentina,"Don José Dellagiovanna, 'Coliseo de Victoria'",Club Atlético Tigre,"Buenos Aires, Argentina",26282,1936,"1955, 2006",,-34.4493333,-58.5422194,don-jose-dellagiovanna-coliseo-de-victoria-3100079.jpg
Argentina,Claudio 'Chiqui' Tapia,Club Atlético Barracas Central,"Buenos Aires, Argentina",12000,1916,"1970, 2004, 2006, 2011, 2021",,-34.64694,-58.39639,claudio-chiqui-tapia-952696.jpg
Argentina,Juan Carmelo Zerillo,Club de Gimnasia y Esgrima La Plata,"La Plata, Argentina",60000,1924,,,-34.910975,-57.9325917,juan-carmelo-zerillo-102448.jpg
Argentina,Roberto Natalio Carminatti,Club Olimpo de Bahía Blanca,"Bahía Blanca, Argentina",18000,1942,"1977, 2003",,,,roberto-natalio-carminatti-108543.jpg
Argentina,Diego Armando Maradona,Asociación Atlética Argentinos Juniors,"Buenos Aires, Argentina",25110,1940,,1995,-34.606028,-58.472583,diego-armando-maradona-959671.jpg
Argentina,Estadio de la Avenida,Club Atlético Unión de Sunchales,"Santa Fe, Argentina",29000,1929,"1931, 1943, 1975, 1981, 2003, 2019",,-31.63194,-60.71583,estadio-de-la-avenida-956890.jpg
Argentina,Nuevo Francisco Urbano,Club Deportivo Morón,"Buenos Aires, Argentina",32000,2013,,,,,nuevo-francisco-urbano-14093858.jpg
Argentina,El Gigante del Norte,Club de Gimnasia y Tiro de Salta,"Salta, Argentina",24300,1922,"1980, 1994",,,,el-gigante-del-norte-108536.jpg
Argentina,Ciudad de Vicente López,Club Atlético Platense,"Florida, Argentina",28530,1979,,,-34.5401833,-58.4815944,ciudad-de-vicente-lopez-102453.jpg
Argentina,Alfredo Beranger,Club Atlético Temperley,"Turdera, Argentina",26000,1924,"1930, 1947, 2005, 2012",,-34.7822861,-58.3995083,alfredo-beranger-3101524.jpg
Argentina,Chacarita Juniors,Club Atlético Chacarita Juniors,"Villa Maipú, Argentina",13600,1945,,,-34.5674,-58.5282,chacarita-juniors-102494.jpg
Argentina,La Ciudadela,Club Atlético San Martín de Tucumán,"Tucumán, Argentina",30250,1932,"1977, 1993, 2017",,-26.8362806,-65.2296056,la-ciudadela-102475.jpg
Argentina,Mario Alberto Kempes,Club Atlético Talleres de Córdoba,"Córdoba , Argentina",57000,1978,2020,,-31.3689556,-64.2462444,mario-alberto-kempes-102442.jpg
Argentina,Islas Malvinas,Club Atlético All Boys,"Buenos Aires, Argentina",21500,1963,,,-34.6165,-58.49775,islas-malvinas-108513.jpg
Argentina,Florencio Sola,Club Atlético Banfield,"Banfield, Argentina",34900,1940,2006,,-34.7508472,-58.3875444,florencio-sola-102441.jpg
Argentina,Miguel Sancho,Club Atlético Racing de Córdoba,"Córdoba, Argentina",15000,1948,1984,,-31.3895,-64.1434,miguel-sancho-6300047.jpg
Argentina,Guillermo Laza,Club Deportivo Riestra,"Buenos Aires, Argentina",3000,1993,,,-34.65333,-58.44361,guillermo-laza-956735.jpg
Argentina,Tomás Adolfo Ducó,Club Atlético Huracán,"Buenos Aires, Argentina",48314,1924,1947,,-34.6434944,-58.3965111,tomas-adolfo-duco-102449.jpg
Argentina,Don León Kolbowski,Club Atlético Atlanta,"Buenos Aires , Argentina",18000,1960,"2009, 2022",,-34.5949722,-58.4492611,don-leon-kolbowski-108519.jpg
Armenia,Vazgen Sargsyan Hanrapetakan Stadium,Ararat Yerevan,"Yerevan , Armenia",14403,1935,"1953, 1999, 2008",,40.17194,44.52583,vazgen-sargsyan-hanrapetakan-stadium-59006195.jpg
Armenia,Mika Stadium,FA Mika Yerevan,"Yerevan , Armenia",7000,2008,,,40.1493734,44.4764489,mika-stadium-59006202.jpg
Armenia,Urartu,Banants,"Yerevan , Armenia",4860,2008,"2011, 2019",,40.171426,44.449938,urartu-59029263.jpg
Armenia,Gyumri City Stadium,Shirak Gyumri,"Gyumri , Armenia",4000,,"1999, 2012, 2019",,40.78583,43.83333,gyumri-city-stadium-484461.jpg
Australia,Western Sydney Stadium,Western Sydney Wanderers FC,"Sydney , Australia",30000,2019,,,-33.80806,150.99972,western-sydney-stadium-123000.jpg
Australia,HBF Park,Perth Glory Football Club,"Perth , Australia",20500,,"2004, 2012, 2023",,-31.945751,115.869924,hbf-park-123002.jpg
Australia,Lakeside Stadium,South Melbourne FC,"Melbourne , Australia",12000,1878,"1995, 2011, 2019",,-37.84028,144.965,lakeside-stadium-129983.jpg
Australia,Suncorp Stadium,Brisbane Roar Football Club,"Brisbane , Australia",52500,1914,,,-27.46472,153.00944,suncorp-stadium-122989.jpg
Australia,Campbelltown Stadium,Macarthur Football Club,"Sydney , Australia",17500,1955,,,-34.05028,150.83361,campbelltown-stadium-426510.jpg
Australia,Canberra Stadium,Canberra Cosmos FC,"Canberra , Australia",25011,1977,,,-35.25,149.10278,canberra-stadium-122991.jpg
Australia,Allianz Stadium,Sydney Football Club,"Sydney , Australia",42500,2022,,,-33.88917,151.22528,allianz-stadium-425197.jpg
Australia,Stadium Australia,A-League All-Stars,"Sydney , Australia",82000,1999,,,-33.84722,151.06306,stadium-australia-120229.jpg
Australia,McDonald Jones Stadium,Newcastle Jets FC,"Newcastle , Australia",33000,1970,"2003, 2008",,-32.91889,151.72667,mcdonald-jones-stadium-425585.jpg
Austria,DATENPOL ARENA,FC Flyeralarm Admira,"Maria Enzersdorf, Austria",10600,1967,,,48.0975,16.31083,datenpol-arena-136561.jpg
Austria,Pappelstadion,SV Mattersburg,"Mattersburg , Austria",15700,1952,"2001, 2003, 2007",,47.73917,16.40639,pappelstadion-136559.jpg
Austria,Stadion Wiener Neustadt,SC Wiener Neustadt,"Wiener Neustadt , Austria",4290,1955,2008,2020,47.82278,16.25528,stadion-wiener-neustadt-16012385.jpg
Austria,Sparkasse Arena Birkenwiese,FC Mohren Dornbirn 1913,"Dornbirn , Austria",7500,1935,,,47.41647,9.72409,sparkasse-arena-birkenwiese-5604965.jpg
Austria,Red Bull Arena,FC Red Bull Salzburg,"Salzburg , Austria",30188,2003,"2005, 2006, 2007",,47.81639,12.99833,red-bull-arena-1300080.jpg
Austria,Reichshofstadion,SC Austria Lustenau,"Lustenau , Austria",5138,1951,"1995, 2000, 2024, 2025",,47.42111,9.65278,reichshofstadion-136556.jpg
Austria,Rudolf-Tonn-Stadion,Sportvereinigung Schwechat,"Schwechat , Austria",7000,1980,2003,,48.12917,16.46861,rudolf-tonn-stadion-5605472.jpg
Austria,Allianz Stadion,SK Rapid Wien,"Vienna , Austria",28600,2016,,,48.19778,16.26528,allianz-stadion-16152805.jpg
Austria,NV Arena,SKN St. Pölten,"Sankt Pölten , Austria",8000,2012,,,48.2209,15.6531,nv-arena-16066768.jpg
Austria,Tivoli Stadion Tirol,FC Wacker Innsbruck,"Innsbruck , Austria",17000,2000,,,47.25583,11.41083,tivoli-stadion-tirol-5603780.jpg
Austria,CASHPOINT Arena,CASHPOINT SCR Altach,"Vorarlberg, Austria",8500,1990,,,47.353889,9.636667,cashpoint-arena-5607424.jpg
Austria,Ernst-Happel-Stadion,,"Vienna , Austria",50865,1931,"1986, 2008",,48.20722,16.42083,ernst-happel-stadion-102962.jpg
Austria,Lavanttal-Arena,Wolfsberger AC - St. Andrä,"Wolfsberg , Austria",7300,1984,,,46.82639,14.85194,lavanttal-arena-16042424.jpg
Azerbaijan,Azərsun Arena,FK Qarabağ,"Baku , Azerbaijan",4677,2015,,,40.4212,49.9968,azrsun-arena-59094339.jpg
Azerbaijan,ASK Arena,Şafa Baki,"Baku , Azerbaijan",8300,2001,,,40.411,49.8977,ask-arena-8057260.jpg
Azerbaijan,Tovuz Şəhər Stadionu,Turan-T İdman Klubu,"Tovuz , Azerbaijan",6800,1979,,,40.99222,45.62556,tovuz-shr-stadionu-1652227.jpg
Bangladesh,Bangabandhu National Stadium,,"Dhaka , Bangladesh",22085,1954,"1978, 2011, 2021, 2023",,23.727833,90.413444,bangabandhu-national-stadium-103236.jpg
Barbados,Waterford National Stadium,,"Waterford , Barbados",5000,1970,"2024, 2025",,13.12,-59.605,waterford-national-stadium-103170.jpg
Belarus,Borisov-Arena,FC BATE Borisov,"Barysaw , Belarus",13126,2014,,,54.19306,28.47528,borisov-arena-17026511.jpg
Belarus,Dinamo,FC Dinamo Minsk,"Minsk , Belarus",22246,1934,"1939, 1947, 1954, 1978, 1980, 2012, 2017",,53.8951861,27.5600556,dinamo-1300115.jpg
Belarus,Spartak,Dnepr Mogilev,"Mogilev , Belarus",7350,1956,"1983, 1995, 1997, 1999, 2000, 2007, 2008",,53.90528,30.34056,spartak-1300117.jpg
Belarus,Stadium of FC Minsk,Torpedo Minsk,"Minsk , Belarus",5200,1958,,,53.87,27.6575,stadium-of-fc-minsk-17000063.jpg
Belarus,Neman,Neman-Belcard Mosty,"Grodno , Belarus",8500,,"2002, 2008",,53.688861,23.82072,neman-7480062.jpg
Belarus,Atlant,FC Naftan Novopolotsk,"Novopolotsk , Belarus",4520,1970,2006,,55.53722,28.64833,atlant-1300135.jpg
Belarus,Yunost,FK-Slavia Mozyr,"Mazyr , Belarus",5133,1991,,,52.03889,29.277083,yunost-1300121.jpg
Belgium,Daknamstadion,KSC Lokeren-Temse,"Lokeren, Belgium",12136,,"1974, 1997, 2000, 2003, 2014",,51.11639,3.98722,daknamstadion-758.jpg
Belgium,Stade Charles Tondreau,RAEC Mons,"Mons , Belgium",8000,1910,,,50.461957,3.963822,stade-charles-tondreau-780.jpg
Belgium,Stade Maurice Dufrasne (Sclessin),Royal Standard de Liège,"Liège , Belgium",27670,1909,"1985, 1992, 1995, 1999, 2006, 2012",,50.61,5.54333,stade-maurice-dufrasne-sclessin-752.jpg
Belgium,Stade du Tivoli,RAAL La Louvière,"La Louvière , Belgium",12500,1972,,,50.478278,4.201026,stade-du-tivoli-762.jpg
Belgium,King Power at Den Dreef Stadion,Oud-Heverlee Leuven,"Heverlee , Belgium",10020,2002,,,50.86833,4.69417,king-power-at-den-dreef-stadion-807.jpg
Belgium,Freethiel,KSK Beveren,"Beveren , Belgium",8190,1938,"1949, 1967, 1991, 2008, 2009",,51.214139,4.243931,freethiel-776.jpg
Belgium,Stade Roi Baudouin,RSC Anderlecht Futures,"Brussels , Belgium",50093,1930,"1995, 2024",,50.89583,4.33417,stade-roi-baudouin-102965.jpg
Belgium,Stade du Pays de Charleroi,Royal Charleroi Sporting Club,"Charleroi , Belgium",15000,1939,,,50.414609,4.453787,stade-du-pays-de-charleroi-757.jpg
Belgium,Rocourt,Royal Football Club de Liège,"Liège , Belgium",40000,1919,,1995,50.67083,5.5525,rocourt-18093277.jpg
Belgium,Herman Vanderpoortenstadion (Lisp),KSK Lierse Kempenzonen,"Lier , Belgium",14538,1925,"2000, 2009",,51.14417,4.57361,herman-vanderpoortenstadion-lisp-760.jpg
Belgium,Stade Edmond Machtens,FC RWDM Brussels,"Brussels, Belgium",12266,1920,"1973, 1993",,50.855,4.31111,stade-edmond-machtens-756.jpg
Belgium,Planet Group Arena,KAA Gent,"Ghent , Belgium",20185,2013,,,51.01611,3.73417,planet-group-arena-8154209.jpg
Belgium,De Leunen,AS Verbroedering Geel,"Geel , Belgium",8000,,,,51.1703,4.96834,de-leunen-768.jpg
Belgium,Le Canonnier,R Excelsior Mouscron,"Mouscron , Belgium",10800,1930,1999,,50.733953,3.211082,le-canonnier-747.jpg
Belgium,Guldensporenstadion,KV Kortrijk,"Kortrijk , Belgium",9399,1947,"1988, 2008",,50.830432,3.248906,guldensporenstadion-770.jpg
Belgium,Diaz Arena,KV Oostende,"Ostend , Belgium",8432,1934,2007,,51.2169,2.8865,diaz-arena-771.jpg
Belgium,Jan Breydelstadion,"Club Brugge KV, KSV Cercle Brugge","Bruges , Belgium",29062,1975,"1987, 1993, 1998, 1999, 2002, 2010, 2011, 2012, 2015, 2016",,51.19333,3.18056,jan-breydelstadion-746.jpg
Belgium,Stade Joseph Marien (Parc Duden),Royale Union Saint-Gilloise,"Brussels, Belgium",9400,1919,"1926, 2018",,50.81778,4.32917,stade-joseph-marien-parc-duden-811.jpg
Belgium,DENDER Football Complex,FCV Dender EH,"Denderleeuw , Belgium",6429,1997,,,50.883683,4.071185,dender-football-complex-764.jpg
Belgium,'t Kuipje,KVC Westerlo,"Westerlo , Belgium",8035,,,,51.094817,4.928806,t-kuipje-778.jpg
Belgium,Stade Leburton,AFC Tubize,"Tubize , Belgium",8100,,,,50.68389,4.20056,stade-leburton-781.jpg
Belgium,Olympisch Stadion (Kiel),Beerschot AC,"Antwerp , Belgium",12771,1920,"2000, 2012, 2018, 2025",,51.185,4.38222,olympisch-stadion-kiel-763.jpg
Belgium,Stade Justin Peeters,R Wavre-Limal,"Wavre , Belgium",5000,1923,2021,,50.72028,4.61861,stade-justin-peeters-787.jpg
Belgium,Kehrweg,KAS Eupen,"Eupen , Belgium",8363,1947,,,50.62639,6.04583,kehrweg-798.jpg
Belgium,Oscar Van Kesbeeckstadion,K Racing Club Mechelen,"Mechelen , Belgium",6123,1923,1947,,51.03778,4.47167,oscar-van-kesbeeckstadion-805.jpg
Belgium,Elindus Arena,SV Zulte Waregem,"Waregem , Belgium",12414,1957,,,50.88306,3.42889,elindus-arena-777.jpg
Belgium,Cegeka Arena,K Racing Club Genk,"Genk , Belgium",23718,1990,,,51.005,5.53333,cegeka-arena-753.jpg
Belgium,Bosuil,Royal Antwerp FC,Deurne Belgium,16144,1923,"2017, 2020, 2025",,51.2325,4.47222,bosuil-751.jpg
Belgium,Lotto Park,Royal Sporting Club Anderlecht,"Brussels, Belgium",21500,1917,"1983, 1985, 1987, 1992, 2012",,50.83417,4.29833,lotto-park-755.jpg
Belgium,Daio Wasabi Stayen Stadium,K Sint-Truidense VV,"Sint-Truiden , Belgium",14600,1927,2011,,50.813474,5.166256,daio-wasabi-stayen-stadium-759.jpg
Bolivia,Félix Capriles,Club Jorge Wilstermann,"Cochabamba, Bolivia",32100,1938,"1997, 2018",,-17.379303,-66.16183,felix-capriles-308097.jpg
Bolivia,Jesús Bermúdez,Club Deportivo San José,"Oruro, Bolivia",33000,1955,,,-17.9462111,-67.1115639,jesus-bermudez-5240010.jpg
Bolivia,Ramón Tahuichi Aguilera,Club Deportivo Oriente Petrolero,"Santa Cruz de la Sierra , Bolivia",38000,1940,"1995, 1996, 2014, 2020",,-17.796067,-63.183873,ramon-tahuichi-aguilera-308095.jpg
Bolivia,Víctor Agustín Ugarte,Club Real Potosí,"Potosí , Bolivia",29210,1992,2008,,-19.57861,-65.76111,victor-agustin-ugarte-5240006.jpg
Bolivia,Hernando Siles,"Club Bolívar, Club The Strongest","La Paz , Bolivia",41143,1930,1977,,-16.49944,-68.12278,hernando-siles-308092.jpg
Bolivia,Olímpico Patria,Club Independiente Petrolero,"Sucre , Bolivia",30700,1992,,,-19.032322,-65.257912,olimpico-patria-5240004.jpg
Bosnia & Herzegovina,Stadion Krupe - Krupa na Vrbasu,FK Krupa - Krupa na Vrbasu,"Krupa na Vrbasu , Bosnia and Herzegovina",3500,,,,44.617561,17.147383,stadion-krupe-krupa-na-vrbasu-21026936.jpg
Bosnia & Herzegovina,Otoka,FK Olimpik Sarajevo,"Sarajevo , Bosnia and Herzegovina",3000,1993,2011,,,,otoka-8500750.jpg
Bosnia & Herzegovina,Stadion pod Bijelim Brijegom,HŠK Zrinjski Mostar,"Mostar , Bosnia and Herzegovina",13000,1958,"2023, 2024",,43.34556,17.79528,stadion-pod-bijelim-brijegom-5742021.jpg
Bosnia & Herzegovina,Tušanj,FK Sloboda Tuzla,"Tuzla , Bosnia and Herzegovina",7200,1957,"1979, 2004, 2009, 2023",,,,tusanj-1300212.jpg
Bosnia & Herzegovina,Bilino Polje,NK Čelik Zenica,"Zenica , Bosnia and Herzegovina",15292,1972,2012,,44.20575,17.907083,bilino-polje-1300209.jpg
Bosnia & Herzegovina,Gradski stadion,FK Borac Banja Luka,"Banja Luka , Bosnia and Herzegovina",10030,1937,,,44.7761,17.1996,gradski-stadion-5741997.jpg
Bosnia & Herzegovina,Pirota,NK Travnik,"Travnik , Bosnia and Herzegovina",3076,,,,,,pirota-5742018.jpg
Bosnia & Herzegovina,Grbavica,FK Željezničar Sarajevo,"Sarajevo , Bosnia and Herzegovina",18057,1953,"1976, 2018, 2020",,43.84667,18.38722,grbavica-1300207.jpg
Botswana,National Stadium,Police XI,"Gaborone , Botswana",25000,1966,,,-24.6568,25.9328917,national-stadium-103027.jpg
Brazil,Arena Pantanal,Clube Esportivo Dom Bosco,"Cuiabá , Brazil",42788,2014,,,,,arena-pantanal-19213335.jpg
Brazil,Melão,Boa Esporte Clube,"Varginha , Brazil",15471,1988,,,-21.57,-45.41417,melao-2114445.jpg
Brazil,São Januário,Club de Regatas Vasco da Gama,"Rio de Janeiro , Brazil",24584,1927,"2006, 2012",,-22.8909167,-43.2282528,sao-januario-102551.jpg
Brazil,Arena Condá,Associação Chapecoense de Futebol,"Chapecó , Brazil",20089,1976,2008,,-27.104139,-52.607,arena-conda-301305.jpg
Brazil,Ilha do Retiro,Sport Club do Recife,"Recife , Brazil",26300,1937,,,-8.06278,-34.90278,ilha-do-retiro-102550.jpg
Brazil,Brinco de Ouro,Guarani Futebol Clube,"Campinas , Brazil",29130,1953,,,-22.90972,-47.04361,brinco-de-ouro-102536.jpg
Brazil,Bezerrão,Sociedade Esportiva do Gama,"Gama  , Brazil",20310,1977,,,-16.0125,-48.06222,bezerrao-102543.jpg
Brazil,Arena Independência,América Futebol Clube (MG),"Belo Horizonte,  Brazil",23018,1950,"2010, 2012",,-19.90833,-43.91778,arena-independencia-107202.jpg
Brazil,Couto Pereira,Coritiba Foot Ball Club,"Curitiba , Brazil",40502,1932,"2005, 2014",,-25.421111,-49.2595,couto-pereira-107196.jpg
Brazil,Estádio Passo d'Areia,Esporte Clube São José (RS),"Porto Alegre , Brazil",10600,1940,,,-30.0066444,-51.1735917,estadio-passo-dareia-301285.jpg
Brazil,Ligga Arena,Clube Athlético Paranaense,"Curitiba, Brazil",42372,1999,"2009, 2012, 2014",,-25.44833,-49.27694,ligga-arena-107207.jpg
Brazil,Joia da Princesa,Fluminense de Feira Futebol Clube,"Feira de Santana ,  Brazil",16274,1953,,,-12.2445833,-38.97235,joia-da-princesa-301124.jpg
Brazil,MorumBIS,São Paulo Futebol Clube,"São Paulo , Brazil",72039,1960,"1994, 1996, 2000, 2009, 2016",,-23.6,-46.72028,morumbis-102549.jpg
Brazil,Orlando Scarpelli,Figueirense Futebol Clube,"Florianópolis  , Brazil",19584,1961,,,-27.58556,-48.58667,orlando-scarpelli-301307.jpg
Brazil,Morenão,"Esporte Clube Comercial (MS), Operário Futebol Clube (MS)","Campo Grande , Brazil",45000,1971,,,-20.50139,-54.60972,morenao-107243.jpg
Brazil,Beira-Rio,Sport Club Internacional,"Porto Alegre, Brazil",50848,1969,2013,,-30.0656139,-51.2360861,beira-rio-102537.jpg
Brazil,Arena Castelão,"Ceará Sporting Club, Fortaleza Esporte Clube","Fortaleza ,  Brazil",57867,1973,"2002, 2013",,-3.80722,-38.5225,arena-castelao-312272.jpg
Brazil,Mangueirão,Sport Club Belém,"Belém ,  Brazil",53645,1978,"2002, 2023",,-1.381111,-48.444,mangueirao-484779.jpg
Brazil,Estádio da Serrinha,Goiás Esporte Clube,"Goiânia , Brasil",14450,1995,"2003, 2013, 2018",,-16.71111,-49.26139,estadio-da-serrinha-301917.jpg
Brazil,Aflitos,Clube Náutico Capibaribe,"Recife, Brazil",19800,1939,,,-8.04056,-34.89667,aflitos-102538.jpg
Brazil,Barradão,Esporte Clube Vitória,"Salvador , Brazil",34535,,1991,,-12.91917,-38.42722,barradao-102552.jpg
Brazil,Maracanã,"Clube de Regatas do Flamengo, Fluminense Football Club","Rio de Janeiro, Brazil",78838,1950,"2000, 2006, 2013",,-22.91222,-43.23028,maracana-102987.jpg
Brazil,Albertão,River Atlético Clube (PI),"Teresina , Brazil",44200,1973,,,-5.116,-42.793,albertao-8825232.jpg
Brazil,Canindé,Associação Portuguesa de Desportos,"São Paulo , Brazil",21004,1956,"1972, 1973",,-23.52056,-46.61833,caninde-102544.jpg
Brazil,Frasqueirão,ABC Futebol Clube,"Natal, Brazil",18000,2006,,,-5.8894,-35.1801,frasqueirao-19022649.jpg
Brazil,Santa Cruz,Botafogo Futebol Clube (SP),"Ribeirão Preto , Brazil",29292,1968,,,-21.2025,-47.78917,santa-cruz-127387.jpg
Brazil,Estádio do Café,Matsubara,"Londrina , Brazil",30000,1976,,,-23.28222,-51.165,estadio-do-cafe-107199.jpg
Brazil,Radialista Mário Helênio,Tupi Football Club,"Juiz de Fora , Brazil",31863,1988,,,-21.7875,-43.37806,radialista-mario-helenio-301199.jpg
Brazil,Mineirão,Cruzeiro Esporte Clube,"Belo Horizonte , Brazil",66658,1965,2012,,-19.86583,-43.97083,mineirao-102531.jpg
Brazil,Casa de Apostas Arena Fonte Nova,Esporte Clube Bahia,"Salvador , Brazil",47902,2013,,,-12.97861,-38.50417,casa-de-apostas-arena-fonte-nova-19047509.jpg
Brazil,Arena das Dunas,América Futebol Clube (RN),"Natal, Brazil",31375,2014,,,-5.826936,-35.212371,arena-das-dunas-19047507.jpg
Brazil,Novelli Júnior,Ituano Futebol Clube,"Itu , Brazil",18560,1947,2011,,-23.28081,-47.287675,novelli-junior-107217.jpg
Brazil,Raulino de Oliveira,Volta Redonda Futebol Clube,"Volta Redonda  , Brazil",18230,1976,,,-22.5083361,-44.0969278,raulino-de-oliveira-107241.jpg
Brazil,Baenão,Clube do Remo,"Belém , Brazil",13792,1917,2019,,-1.445,-48.46583,baenao-107200.jpg
Brazil,Estádio Coaracy da Mata Fonseca,Agremiação Sportiva Arapiraquense,"Arapiraca  , Brazil",17000,1953,,,-9.7479,-36.667,estadio-coaracy-da-mata-fonseca-301101.jpg
Brazil,Arena MRV,Clube Atlético Mineiro,"Belo Horizonte , Brazil",44892,2023,,,-19.929861,-44.01444,arena-mrv-19342425.jpg
Brazil,Estádio Antônio Accioly,Atlético Clube Goianiense,"Goiânia , Brazil",12500,2018,"2013, 2018, 2020",,-16.6702083,-49.2842722,estadio-antonio-accioly-19371625.jpg
Brazil,Arena Barueri,Oeste Futebol Clube,"São Paulo , Brazil",31452,2007,,,-23.51306,-46.89944,arena-barueri-19044057.jpg
Brazil,Arena da Amazônia,Atlético Cliper Clube,"Manaus , Brazil",42924,2014,,,-3.08306,-60.02806,arena-da-amazonia-19131097.jpg
Brazil,Centenário,Sociedade Esportiva e Recreativa Caxias do Sul,"Caxias do Sul , Brazil",22132,1976,,,-29.165,-51.19667,centenario-301267.jpg
Brazil,Estádio Nabi Abi Chedid,Red Bull Bragantino,"Bragança Paulista  , Brazil",17022,1949,,,-22.9654139,-46.5369361,estadio-nabi-abi-chedid-102527.jpg
Brazil,Vila Capanema,Paraná Clube,"Curitiba  , Brazil",20000,1947,,,-25.43944,-49.25583,vila-capanema-102541.jpg
Brazil,Almeidão,Botafogo Futebol Clube (PB),"João Pessoa  , Brazil",25770,1975,,,-7.1675,-34.87278,almeidao-301209.jpg
Brazil,Estádio da Ressacada,Avaí Futebol Clube,"Florianópolis , Brazil",17800,1983,2006,,-27.66639,-48.53167,estadio-da-ressacada-107209.jpg
Brazil,Estádio Banpará Curuzu,Paysandu Sport Club,"Belém  , Brazil",16200,1914,2014,,-1.44389,-48.46278,estadio-banpara-curuzu-102542.jpg
Brazil,Amigão,Campinense Clube,"Campina Grande , Brazil",35000,1975,,,-7.25389,-35.88083,amigao-301211.jpg
Brazil,Heriberto Hülse,Criciúma Esporte Clube,"Criciúma , Brazil",19225,1955,,,-28.68417,-49.3675,heriberto-hulse-102530.jpg
Brazil,Arena Acreana,Rio Branco Football Club (AC),"Rio Branco  , Brazil",13700,2006,,,-10.00222,-67.80389,arena-acreana-19024487.jpg
Brazil,Presidente Vargas,Treze Futebol Clube,"Fortaleza  , Brazil",20600,1941,"2008, 2011",,-3.74583,-38.53667,presidente-vargas-301213.jpg
Brazil,Allianz Parque,Sociedade Esportiva Palmeiras,"São Paulo, Brazil",43713,2014,,,-23.5275,-46.6785,allianz-parque-19065975.jpg
Brazil,Arruda,Santa Cruz Futebol Clube,"Recife, Brazil",50000,1972,,,-8.0267111,-34.891175,arruda-102539.jpg
Brazil,Moisés Lucarelli,Associação Atlética Ponte Preta,"Campinas , Brazil",17728,1948,,,-22.91361,-47.05139,moises-lucarelli-102546.jpg
Brazil,Itaipava Arena Pernambuco,Vera Cruz Futebol Clube,"São Lourenço da Mata ,  Brazil",45440,2013,,,-8.04056,-35.00833,itaipava-arena-pernambuco-19047510.jpg
Brazil,Cornélio de Barros,Salgueiro Atlético Clube,"Salgueiro , Brazil",11000,1970,,,-8.075,-39.12333,cornelio-de-barros-19005120.jpg
Brazil,Walter Ribeiro,Esporte Clube São Bento,"Sorocaba ,  Brazil",13722,1978,,,-23.4895556,-47.4490556,walter-ribeiro-2115500.jpg
Brazil,Alfredo Jaconi,Esporte Clube Juventude,"Caxias do Sul ,  Brazil",19924,1975,,,-29.162,-51.176,alfredo-jaconi-102554.jpg
Brazil,Arena Grêmio,Grêmio Foot-Ball Porto Alegrense,"Porto Alegre , Brazil",55225,2012,,,-29.9734444,-51.1944028,arena-gremio-19140605.jpg
Brazil,Estádio Nílton Santos,Botafogo de Futebol e Regatas,"Rio de Janeiro , Brazil",46931,2007,,,-22.8931722,-43.2922694,estadio-nilton-santos-8832911.jpg
Brazil,Colosso da Lagoa,Ypiranga Futebol Clube (RS),"Erechim ,  Brazil",22000,1970,,,-27.6510111,-52.2650389,colosso-da-lagoa-319161.jpg
Brazil,Bento Freitas,Grêmio Esportivo Brasil,"Pelotas ,  Brazil",18000,1943,,,-31.77083,-52.3325,bento-freitas-301265.jpg
Brazil,Arena Joinville,Joinville Esporte Clube,"Joinville ,  Brazil",22400,2004,,,-26.316667,-48.833611,arena-joinville-2102346.jpg
Brazil,Rei Pelé,Centro Sportivo Alagoano,"Maceió , Alagoas",19105,1970,1992,,-9.67056,-35.75917,rei-pele-107233.jpg
Bulgaria,Hristo Botev,POFK Botev Vratsa,"Vratsa , Bulgaria",25000,1948,"2008, 2009, 2015, 2022",,43.200861,23.568694,hristo-botev-5410505.jpg
Bulgaria,Gradski stadion,Dunav 2010 Ruse,"Ruse , Bulgaria",13000,1910,"2013, 2017",,43.84806,25.96306,gradski-stadion-5410495.jpg
Bulgaria,Lokomotiv,Lokomotiv Gorna Oryahovitsa,"Mezdra , Bulgaria",3000,1946,2007,,43.13889,23.7125,lokomotiv-7500296.jpg
Bulgaria,Lazur,Chernomorets 1919 Burgas,"Burgas , Bulgaria",18037,1967,"1997, 2009, 2010",,42.5125,27.47028,lazur-1300190.jpg
Bulgaria,Vasil Levski,CSKA-Sofia,"Sofia , Bulgaria",43230,1953,"1966, 2002, 2012, 2015",,42.6875,23.33528,vasil-levski-102967.jpg
Bulgaria,Hristo Botev,Botev Plovdiv,"Vratsa , Bulgaria",25000,1948,"2008, 2009, 2015, 2022",,43.200861,23.568694,hristo-botev-1300181.jpg
Bulgaria,Hristo Botev,OFK Pirin Blagoevgrad,"Blagoevgrad , Bulgaria",6927,1934,"2009, 2010",,42.02639,23.1,hristo-botev-7500314.jpg
Bulgaria,Balgarska Armiya,CSKA-Sofia II,"Sofia , Bulgaria",17376,1967,"1982, 1997, 2001, 2015, 2016",2023,42.68417,23.33972,balgarska-armiya-116148.jpg
Bulgaria,Druzhba,Dobrudzha 1919 Dobrich,"Dobrich , Bulgaria",12000,1960,,,43.5560278,27.8268056,druzhba-1300183.jpg
Bulgaria,Gradski stadion,Litex Lovech,"Lovech , Bulgaria",6824,1962,"1999, 2011",,43.1426389,24.7248611,gradski-stadion-1300198.jpg
Bulgaria,Ivaylo,Etar Veliko Tarnovo,"Veliko Tarnovo , Bulgaria",15000,1958,2015,,43.07722,25.62056,ivaylo-1300184.jpg
Bulgaria,Arena Sozopol,FK Sozopol,"Sozopol , Bulgaria",3500,2012,,,42.4136,27.6969,arena-sozopol-22056535.jpg
Bulgaria,Pomorie,OFK Pomorie,"Pomorie , Bulgaria",2000,2006,2017,,42.565985,27.636656,pomorie-7500315.jpg
Bulgaria,Arena Arda,Arda 1924 Kardzhali,"Kardzhali , Bulgaria",11114,1963,"2018, 2020",,41.641194,25.378056,arena-arda-22051521.jpg
Bulgaria,Ticha,Cherno more Varna,"Varna , Bulgaria",6250,1935,"1961, 1968, 2008, 2015",,43.21583,27.93139,ticha-138158.jpg
Bulgaria,Beroe,Beroe Stara Zagora,"Stara Zagora , Bulgaria",12128,1959,"2004, 2007, 2011, 2013",,42.43278,25.61528,beroe-5410507.jpg
Bulgaria,Aleksandar Shalamanov,Slavia 1913 Sofia,"Sofia , Bulgaria",25000,,,,42.6753611,23.2720278,aleksandar-shalamanov-1300192.jpg
Bulgaria,Ogosta,Montana 1921,"Montana , Bulgaria",7000,1965,"2006, 2014, 2017",,43.39861,23.22528,ogosta-1300189.jpg
Bulgaria,Trace Arena,Vereya Stara Zagora,"Stara Zagora , Bulgaria",3500,2001,"2014, 2016",,42.39556,25.64694,trace-arena-22024037.jpg
Bulgaria,Ludogorets Arena,Ludogorets 1945 Razgrad,"Razgrad , Bulgaria",10423,,2011,,43.534556,26.527722,ludogorets-arena-7500306.jpg
Bulgaria,Vivacom Arena - Georgi Asparuhov,PFC Levski Sofia,"Sofia, Bulgaria",17688,1963,"1999, 2016",,42.70556,23.36333,vivacom-arena-georgi-asparuhov-1300185.jpg
Cameroon,Stade Omnisports Roumdé Adjia,Cotonsport de Garoua,"Garoua , Cameroon",30000,1978,2018,,9.32611,13.39917,stade-omnisports-roumde-adjia-105276.jpg
Cameroon,Stade Omnisports Ahmadou Ahidjo,Canon Sportif de Yaoundé,"Yaoundé , Cameroon",42500,1972,"2005, 2015, 2016",,3.88556,11.54056,stade-omnisports-ahmadou-ahidjo-103030.jpg
Cameroon,Stade de la Réunification,Oryx Club de Douala,"Douala , Cameroun",39000,1972,2018,,4.05556,9.71861,stade-de-la-reunification-105274.jpg
Canada,Clarke Field,FC Edmonton,"Edmonton , Canada",20000,1938,"2001, 2013",,53.55722,-113.47833,clarke-field-20031274.jpg
Canada,Princess Auto Stadium,Valour Football Club,"Winnipeg , Canada",32343,2013,,,49.80778,-97.14306,princess-auto-stadium-20502272.jpg
Canada,BMO Field,Toronto FC,"Toronto , Canada",28180,2007,,,43.633222,-79.418583,bmo-field-72003114.jpg
Canada,Lamport Stadium,SC Toronto,"Toronto , Canada",9600,1976,"2007, 2008, 2018",,43.63889,-79.42306,lamport-stadium-72000781.jpg
Canada,TD Place,Atlético Ottawa,"Ottawa , Canada",10000,1908,,,45.39806,-75.68361,td-place-72000780.jpg
Chile,Estadio Elías Figueroa Brander,Santiago Wanderers,"Valparaíso , Chile",20575,1931,,,-33.022,-71.64,estadio-elias-figueroa-brander-5250429.jpg
Chile,Municipal de La Pintana,Santiago Morning,"Santiago , Chile",5000,,,,-33.58667,-70.63583,municipal-de-la-pintana-5250789.jpg
Chile,Municipal de San Felipe,Unión San Felipe,"San Felipe, Chile",12000,1958,,,-32.74694,-70.73,municipal-de-san-felipe-308157.jpg
Chile,CAP,Huachipato,"Talcahuano , Chile",10032,2009,,,-36.75556,-73.10722,cap-75015836.jpg
Chile,La Portada,Deportes La Serena,"La Serena, Chile",17134,1952,,,-29.91111,-71.25194,la-portada-308144.jpg
Chile,Regional de Chinquihue,Deportes Puerto Montt,"Puerto Montt , Chile",10000,1982,"2011, 2013",,-41.4915,-72.98705,regional-de-chinquihue-8826869.jpg
Chile,Bicentenario Municipal Nelson Oyarzún,Ñublense,"Chillán , Chile",12000,1961,,,-36.61806,-72.1075,bicentenario-municipal-nelson-oyarzun-308151.jpg
Chile,San Carlos de Apoquindo,Universidad Católica,"Las Condes, Chile",20249,1988,"1994, 2012, 2014, 2022, 2024",,-33.3959444,-70.5006556,san-carlos-de-apoquindo-107644.jpg
Chile,Municipal Roberto Bravo Santibáñez,Club de Deportes Melipilla,"Melipilla , Chile",6500,1942,,,-33.69694,-71.21667,municipal-roberto-bravo-santibanez-308149.jpg
Chile,Santa Laura,Unión Española,"Santiago, Chile",19887,1923,2008,,-33.4045528,-70.6590167,santa-laura-308134.jpg
Chile,El Teniente,O'Higgins,"Rancagua , Chile",14087,1947,"1995, 2013",2013,-34.17778,-70.7375,el-teniente-107642.jpg
Chile,Bicentenario Municipal de La Florida,Audax Italiano,"Santiago , Chile",11637,1986,2008,2008,-33.54083,-70.57833,bicentenario-municipal-de-la-florida-308117.jpg
Chile,Bicentenario Francisco Sánchez Rumoroso,Coquimbo Unido,"Coquimbo , Chile",15809,1970,2008,,-29.96528,-71.33833,bicentenario-francisco-sanchez-rumoroso-308121.jpg
Chile,El Cobre,Cobresal,"El Salvador, Chile",11240,1980,,,-26.25194,-69.62861,el-cobre-308140.jpg
Chile,Carlos Dittborn,San Marcos de Arica,"Arica , Chile",9746,1962,,,-18.4875,-70.29917,carlos-dittborn-308139.jpg
Chile,Bicentenario Fiscal de Talca,Rangers de Talca,"Talca, Chile",16070,1930,2011,,-35.41972,-71.67389,bicentenario-fiscal-de-talca-308155.jpg
Chile,Municipal Nicolás Chahuán Nazar,Unión La Calera,"La Calera , Chile",8353,1950,2019,2017,-32.78417,-71.19944,municipal-nicolas-chahuan-nazar-5251594.jpg
Chile,Monumental David Arellano,Colo Colo,"Santiago , Chile",47347,1975,,,-33.506611,-70.605944,monumental-david-arellano-107639.jpg
Chile,Municipal de Lo Barnechea,Athletic Club Barnechea,"Santiago, Chile",2500,,,,-33.35,-70.5,municipal-de-lo-barnechea-5250763.jpg
Chile,Tierra de Campeones,Deportes Iquique,"Iquique , Chile",13171,1993,2020,,-20.242413,-70.132937,tierra-de-campeones-308142.jpg
Chile,Bicentenario Germán Becker,Deportes Temuco,"Temuco , Chile",18100,1965,,,-38.74278,-72.61972,bicentenario-german-becker-107643.jpg
Chile,Bicentenario Municipal Luis Valenzuela Hermosilla,Deportes Copiapó,"Copiapó , Chile",8000,1960,"2009, 2011",,-27.37667,-70.32083,bicentenario-municipal-luis-valenzuela-hermosilla-5250766.jpg
Chile,Estadio Regional Calvo y Bascuñán de Antofagasta,Deportes Antofagasta,"Antofagasta , Chile",35000,1964,"2011, 2013",,-23.67,-70.405,estadio-regional-calvo-y-bascunan-de-antofagasta-308136.jpg
Chile,Bicentenario La Granja,CDP Curicó Unido,"Curicó, Chile",8278,1949,,,-34.97444,-71.22972,bicentenario-la-granja-5250783.jpg
Chile,Bicentenario Municipal Lucio Fariña Fernández,San Luis de Quillota,"Quillota , Chile",7680,2010,,,-32.8876,-71.252,bicentenario-municipal-lucio-farina-fernandez-5250778.jpg
Chile,Municipal de La Cisterna,Palestino,"Santiago , Chile",8000,1988,,,-33.521,-70.673,municipal-de-la-cisterna-308129.jpg
Chile,Estadio Nacional Julio Martínez Prádanos,Universidad de Chile,"Santiago , Chile",46190,1938,2009,,-33.46444,-70.61056,estadio-nacional-julio-martinez-pradanos-102989.jpg
Chile,Municipal Joaquín Muñoz García,Deportes Santa Cruz,"Santa Cruz, Chile",6000,,,,-34.64,-71.37,municipal-joaquin-munoz-garcia-5250779.jpg
Chile,Sausalito,Everton de Viña del Mar,"Viña del Mar , Chile",23423,1929,,,-33.01444,-71.535,sausalito-308124.jpg
Chile,Municipal 'Zorros del Desierto' de Calama,Cobreloa,"Calama, Chile",12098,1952,2015,,-22.46028,-68.92056,municipal-zorros-del-desierto-de-calama-308118.jpg
Chile,Parque Municipal de Valdivia,Club de Deportes Valdivia,"Valdivia, Chile",5000,,,,-39.8205,-73.2334,parque-municipal-de-valdivia-75016859.jpg
China PR,Xinjiang Sports Centre,Xinjiang Ticai,"Urumqi , China",42300,,,,43.879057,87.55831,xinjiang-sports-centre-23009510.jpg
China PR,Chongqing Olympic Sports Centre,Chongqing Liangjiang Athletic,"Chongqing , China",58680,2004,,,29.528694,106.502111,chongqing-olympic-sports-centre-5630222.jpg
China PR,Huanglong Sports Centre,Hangzhou Greentown,"Hangzhou , China",51971,2000,"2019, 2021",,30.2683,120.129,huanglong-sports-centre-136004.jpg
China PR,Jinshan Sports Centre,Shanghai Zobon,"Shanghai , China",30000,2007,,,30.786797,121.324822,jinshan-sports-centre-23043469.jpg
China PR,Tiantai Stadium,Qingdao Jonoon,"Qingdao , China",20525,1933,2003,,36.0588472,120.3443889,tiantai-stadium-5629248.jpg
China PR,Hohhot City Stadium,Neimenggu Zhongyou,"Hohhot , China",51632,2007,,,40.851203,111.650491,hohhot-city-stadium-23025586.jpg
China PR,Tuodong Stadium,Yunnan Hongta,"Kunming , China",35000,1958,,,25.038011,102.728745,tuodong-stadium-136646.jpg
China PR,He Long Stadium,Hunan Xiangjun,"Changsha , China",55000,,,,28.1817556,112.9773028,he-long-stadium-5620134.jpg
China PR,Tiexi Stadium,Liaoning Whowin,"Shenyang , China",40000,,,,41.809056,123.320556,tiexi-stadium-5620148.jpg
China PR,Shaanxi Provincial Stadium,Shanxi Zhongjian Chanba,"Xi'an , China",42383,1954,"1999, 2019, 2020",,34.23389,108.9375,shaanxi-provincial-stadium-131203.jpg
China PR,Xinhua Road Stadium,Hubei Wuhan,"Wuhan , China",22140,1954,,,30.589069,114.268154,xinhua-road-stadium-131216.jpg
China PR,Zibo City Sports Centre,Zibo Sunday,"Zibo , China",45000,,,,36.8133056,117.9828556,zibo-city-sports-centre-23107321.jpg
China PR,Chengdu City Sports Centre,Sichuan First City,"Chengdu , China",39225,1991,,,30.665883,104.065558,chengdu-city-sports-centre-131136.jpg
China PR,Helanshan Stadium,Yinchuan Helanshan,"Yinchuan , China",39872,2013,,,38.49769,106.149004,helanshan-stadium-23141266.jpg
China PR,Yanji All People's Sports Centre Stadium,Yanbian Fude,"Yanji , China",30000,2013,,,42.888889,129.414389,yanji-all-peoples-sports-centre-stadium-23190054.jpg
China PR,Guiyang City Olympic Sports Centre Stadium,Guizhou Hengfeng,"Guiyang , China",51636,2010,,,26.620721,106.605749,guiyang-city-olympic-sports-centre-stadium-23145425.jpg
China PR,Harbin Int. Convention & Exhibition Sports Centre,Heilongjiang Lava Spring,"Harbin , China",48000,2004,,,45.752092,126.701095,harbin-int-convention-exhibition-sports-centre-5627018.jpg
China PR,Jinzhou Stadium,Dalian Wanda,"Dalian , China",30776,1997,"2007, 2020",,39.09525,121.719111,jinzhou-stadium-131141.jpg
China PR,Beijing Olympic Sports Centre,Beijing BG,"Beijing , China",36228,1990,,,39.98222,116.39306,beijing-olympic-sports-centre-5620120.jpg
China PR,Hefei Olympic Sports Centre,Anhui Jiufang,"Hefei , China",60000,2008,,,31.797778,117.222583,hefei-olympic-sports-centre-5636620.jpg
China PR,Haihe Education Park Sports Centre,Tianjin Quanjian,"Tianjin , China",29356,2011,,,39.006941,117.351801,haihe-education-park-sports-centre-23235597.jpg
China PR,Langfang City Stadium,Hebei China Fortune,"Langfang , China",30040,,,,39.553999,116.721186,langfang-city-stadium-23437469.jpg
China PR,Longquanyi Stadium,Chengdu Better City,"Chengdu, China",27000,2004,,,30.6158,104.3078,longquanyi-stadium-1021137.jpg
China PR,Shenyang Olympic Sports Centre,SY Zhongze,"Shenyang , China",60000,2007,,,41.739037,123.457484,shenyang-olympic-sports-centre-23025587.jpg
Colombia,Ciro López,,"Popayán , Colombia",5000,1951,,,2.45444,-76.59167,ciro-lopez-5261244.jpg
Colombia,Metropolitano Roberto Meléndez,Club Deportivo Popular Junior F.C. S.A.,"Barranquilla , Colombia",46788,1986,2011,,10.926861,-74.800722,metropolitano-roberto-melendez-303794.jpg
Colombia,Estadio Metropolitano Ciudad de Itagüí,Itagüí Leones Fútbol Club S.A.,"Itagüí , Colombia",12000,1994,,,4.6233,-74.1353,estadio-metropolitano-ciudad-de-itagui-5261620.jpg
Colombia,Estadio Atanasio Girardot,"Atlético Nacional S.A., Deportivo Independiente Medellín S.A.","Medellín , Colombia",44826,1953,2011,,6.2568,-75.5901722,estadio-atanasio-girardot-303789.jpg
Colombia,Estadio Alberto Grisales,Águilas Doradas Rionegro S.A.,"Rionegro , Colombia",14000,,,,6.1467,-75.3728,estadio-alberto-grisales-5261618.jpg
Colombia,Estadio Sierra Nevada,Unión Magdalena S.A.,"Santa Marta , Colombia",16162,2017,,,11.1908847,-74.199246,estadio-sierra-nevada-76053549.jpg
Colombia,"Estadio Bello Horizonte ""Rey Pelé""",Fútbol Club Unión Meta,"Villavicencio , Colombia",15000,1977,"2001, 2003, 2012, 2019, 2022",,4.13917,-73.61917,estadio-bello-horizonte-rey-pele-5260944.jpg
Colombia,Estadio Centenario de Armenia,Corporación Deportes Quindío S.A.,"Armenia, Colombia",23500,1988,,,4.515307,-75.698447,estadio-centenario-de-armenia-303798.jpg
Colombia,Armando Maestre Pavajeau,Corporación Deportiva Alianza F.C. S.A.,"Valledupar , Colombia",11000,1956,"2013, 2016",,10.4657444,-73.2493361,armando-maestre-pavajeau-76000869.jpg
Colombia,Estadio Hernán Ramírez Villegas,Sociedad Deportivo Pereira F.C. S.A.,"Pereira , Colombia",30297,1971,2011,,4.804804,-75.75219,estadio-hernan-ramirez-villegas-308517.jpg
Colombia,Estadio Olímpico Romelio Martínez,Club Deportivo Soledad F.C.,"Barranquilla , Colombia",8600,1934,,,10.99389,-74.80694,estadio-olimpico-romelio-martinez-5260943.jpg
Colombia,Estadio Nemesio Camacho 'El Campín',"Azul y Blanco Millonarios Fútbol Club S. A., Club Independiente Santa Fe S.A.","Bogotá , Colombia",39512,1938,"2010, 2011",,4.64611,-74.0775,estadio-nemesio-camacho-el-campin-102991.jpg
Colombia,Estadio Guillermo Plazas Alcid,Club Deportivo Atlético Huila S.A.,"Neiva , Colombia",12000,1980,"2016, 2023",,2.935824,-75.280206,estadio-guillermo-plazas-alcid-303793.jpg
Colombia,Estadio Departamental Libertad,Asociación Deportivo Pasto,"Pasto , Colombia",18000,1954,"2000, 2007, 2019",,1.1980111,-77.2776083,estadio-departamental-libertad-303797.jpg
Colombia,Estadio Olímpico Pascual Guerrero,"América de Cali S.A., Atlético Fútbol Club de Cali S.A., Club Atlético Boca Juniors Cali","Cali , Colombia",37000,1937,2010,,3.429889,-76.541083,estadio-olimpico-pascual-guerrero-303788.jpg
Colombia,Estadio Palogrande,Once Caldas S.A.,"Manizales , Colombia",31611,1936,"2010, 2011, 2019",1993,5.056233,-75.489807,estadio-palogrande-303796.jpg
Colombia,Estadio Polideportivo Sur,Envigado Fútbol Club S.A.,"Envigado , Colombia",11000,1992,2009,,6.1641076,-75.5996704,estadio-polideportivo-sur-303792.jpg
Colombia,Estadio Erwin O'Neill,Sea Horse Fútbol Club,"San Andrés , Colombia",5000,2008,,,12.58028,-81.70111,estadio-erwin-oneill-76062060.jpg
Colombia,Doce de Octubre,,"Tuluá , Colombia",16000,1967,,,4.0748914,-76.2015796,doce-de-octubre-303800.jpg
Colombia,Estadio General Santander,Cúcuta Deportivo F.C. S.A.,"Cúcuta, Colombia",32163,1948,"1989, 2006",,7.894478,-72.501717,estadio-general-santander-5260942.jpg
Colombia,Estadio Metropolitano de Techo,Bogotá Fútbol Club S.A.,"Bogotá , Colombia",10000,1959,"2010, 2011",,4.623545,-74.135611,estadio-metropolitano-de-techo-5262012.jpg
Colombia,Álvaro Gómez Hurtado,,"Floridablanca , Colombia",12000,1996,2013,,7.052,-73.0809,alvaro-gomez-hurtado-76003536.jpg
Colombia,Estadio de La Independencia,Boyacá Chicó Fútbol Club S.A.,"Tunja , Colombia",25000,1970,2008,,5.5422333,-73.3531306,estadio-de-la-independencia-5262016.jpg
Colombia,Estadio Deportivo Cali,Asociación Deportivo Cali,"Palmira , Colombia",42000,2010,,,3.5216417,-76.4170361,estadio-deportivo-cali-76013736.jpg
Colombia,Estadio Jaraguay,Jaguares de Córdoba Fútbol Club S.A.,"Montería , Colombia",12000,2012,,,8.711778,-75.827639,estadio-jaraguay-76036412.jpg
Colombia,Alfonso López Pumarejo,,"Bogotá , Colombia",12000,1938,,,4.6403556,-74.0864583,alfonso-lopez-pumarejo-5261644.jpg
Colombia,Estadio Olímpico Jaime Morón León,Real Cartagena Fútbol Club S.A.,"Cartagena, Colombia",17200,1958,2011,,10.405534,-75.498237,estadio-olimpico-jaime-moron-leon-303791.jpg
DR Congo,Stade Alphonse Massemba-Débat,Étoile du Congo,"Brazzaville , Republic of the Congo",33037,,,,-4.273528,15.248417,stade-alphonse-massemba-debat-103034.jpg
Croatia,Stadion Krimeja,HNK Orijent,"Rijeka , Croatia",3000,1923,,,45.3236959,14.4684263,stadion-krimeja-1300246.jpg
Croatia,Aldo Drosina,NK Istra 1961,"Pula , Croatia",10000,,2011,,44.86157,13.8517,aldo-drosina-1300231.jpg
Croatia,Stadion HNK Cibalia,HNK Cibalia Vinkovci,"Vinkovci , Croatia",10000,,"1982, 2003, 2008, 2010",,45.283742,18.797382,stadion-hnk-cibalia-1300227.jpg
Croatia,Gradski stadion Ivan Kušek Apaš,NK Slaven Belupo,"Koprivnica , Croatia",3134,,,,46.16611,16.83472,gradski-stadion-ivan-kusek-apas-106753.jpg
Croatia,Maksimir,GNK Dinamo Zagreb,"Zagreb , Croatia",25912,1912,"1948, 1998, 2011",,45.81889,16.01806,maksimir-129736.jpg
Croatia,Kantrida,NK Opatija,"Rijeka , Croatia",10600,1913,"1925, 1951, 1958, 2029",,45.339202,14.380959,kantrida-24050644.jpg
Croatia,Šubićevac,HNK Šibenik,"Šibenik , Croatia",3412,1948,"1951, 1979, 2000, 2020",,43.7435533,15.8960581,subicevac-1300237.jpg
Croatia,Poljud,HNK Hajduk Split,"Split , Croatia",33987,1979,,,43.51944,16.43167,poljud-1300229.jpg
Croatia,Hrvatski Vitezovi,NK Dugopolje,"Dugopolje , Croatia",5200,2009,,,43.58806,16.57417,hrvatski-vitezovi-24013634.jpg
Croatia,Stanovi,NK Zadar,"Zadar , Croatia",5860,1979,"1994, 2008",,44.112667,15.246829,stanovi-1300240.jpg
Croatia,Rujevica,HNK Rijeka,"Rijeka , Croatia",8279,2015,,,45.347889,14.402194,rujevica-24050633.jpg
Croatia,Gradski stadion,HNK Gorica,"Velika Gorica , Croatia",8000,,"1999, 2010, 2019, 2025",,45.724,16.0732,gradski-stadion-129938.jpg
Croatia,Ivan Laljak - Ivić,NK Inker Zaprešić,"Zaprešić , Croatia",5228,,,,45.86472,15.79972,ivan-laljak-ivic-1300230.jpg
Croatia,SRC Mladost,NK Čakovec,"Čakovec , Croatia",8000,1987,,,46.391531,16.422307,src-mladost-129745.jpg
Croatia,Sv. Josip Radnik - Sesvete,NK Sesvete,"Sesvete, Croatia",3500,,,,45.836389,16.1075,sv-josip-radnik-sesvete-24019594.jpg
Croatia,NŠC Stjepan Spajić,NK Hrvatski Dragovoljac,"Zagreb , Croatia",5000,,,,45.771201,15.971594,nsc-stjepan-spajic-1300242.jpg
Croatia,Gradski vrt,NK Zrinski Osječko 1664,"Osijek , Croatia",18856,1980,"2005, 2010",,45.545,18.69583,gradski-vrt-1300233.jpg
Croatia,Park Mladeži,RNK Split,"Split , Croatia",4075,1950,1979,,43.519038,16.444033,park-mladezi-129753.jpg
Croatia,Kranjčevićeva,NK Lokomotiva Zagreb,"Zagreb , Croatia",11163,1921,"1977, 1987, 2008, 2018, 2025",,45.80472,15.96083,kranjceviceva-127665.jpg
Cuba,Estadio Pedro Marrero,CF Ciudad La Habana,"Havana , Cuba",30000,1930,,,23.107251,-82.412918,estadio-pedro-marrero-5430464.jpg
Cyprus,Stelios Kyriakidis,Karmiotissa Pano Polemidion,"Paphos , Cyprus",9394,1985,2003,,34.7691861,32.4401444,stelios-kyriakidis-1300267.jpg
Cyprus,Vitex Ammochostos Epistrofi,Nea Salamis Famagusta,"Larnaca , Cyprus",5500,1992,1998,,34.92972,33.61306,vitex-ammochostos-epistrofi-1300263.jpg
Cyprus,AEK Arena - Georgios Karapatakis,AE Kition Larnakas,"Larnaca , Cyprus",8058,2016,,,34.92639,33.59778,aek-arena-georgios-karapatakis-26034317.jpg
Cyprus,GSP,APOEL Nicosia,Nicosia  Cyprus,22829,1999,,,35.114528,33.362833,gsp-1300260.jpg
Cyprus,Makareio,Olympiakos Nicosia,"Nicosia , Cyprus",15590,1978,,,35.14611,33.31444,makareio-692448.jpg
Cyprus,Ethnikos Achnas Stadium,Ethnikos Achnas,"Akrotiri and Dhekelia , Cyprus",5422,,,,35.03389,33.765,ethnikos-achnas-stadium-1300262.jpg
Cyprus,Antonis Papadopoulos,Anorthosis Famagusta,"Larnaca , Cyprus",9230,1986,"1997, 2006, 2007, 2008",,34.9375,33.62083,antonis-papadopoulos-1300259.jpg
Czechia,Stadion Josefa Masopusta,FK Baník Most,"Most , Czech Republic",7500,1961,,,50.5106417,13.6468833,stadion-josefa-masopusta-136163.jpg
Czechia,Malšovická Arena,FC Hradec Králové,"Hradec Králové , Czech Republic",9300,2023,,,50.20639,15.84556,malsovicka-arena-1300290.jpg
Czechia,Andrův Stadion,SK Sigma Olomouc,"Olomouc , Czech Republic",12474,1940,,,49.6,17.24833,andruv-stadion-1300293.jpg
Czechia,Ďolíček,Bohemians Praha 1905,"Prague , Czech Republic",6300,1932,,,50.06694,14.45417,dolicek-131292.jpg
Czechia,Loko Trans Aréna,FK Mladá Boleslav,"Mladá Boleslav , Czech Republic",5000,1965,,,50.42722,14.91694,loko-trans-arena-136168.jpg
Czechia,Městský Stadion - Aréna Vítkovice,"FC Baník Ostrava, MFK Vítkovice","Karviná , Czech Republic",4833,1952,,,49.8453,18.5613,mestsky-stadion-arena-vitkovice-136164.jpg
Czechia,Stadion v Jiraskove ulici,FC Vysočina Jihlava,"Jihlava , Czech Republic",4500,1955,,,49.402,15.5735,stadion-v-jiraskove-ulici-136165.jpg
Czechia,Stadion Rudolfa Labaje,FK Fotbal Třinec,"Třinec , Czech Republic",2200,1966,,,49.6686,18.66784,stadion-rudolfa-labaje-136169.jpg
Czechia,Znojmo,1. SC Znojmo FK,"Znojmo , Czech Republic",2599,1952,,,48.8583111,16.0520194,znojmo-5640054.jpg
Czechia,Stadion v Kvapilove ulici,FC SILON Táborsko,"Jihlava , Czech Republic",4500,1955,,,49.402,15.5735,stadion-v-kvapilove-ulici-25054823.jpg
Czechia,Juliska,FK Dukla Praha,"Prague , Czech Republic",8150,1960,,,50.11194,14.3875,juliska-25005066.jpg
Czechia,Na Střeleckém Ostrově,SK Dynamo České Budějovice,"České Budějovice , Czech Republic",6681,1940,,,48.96694,14.4675,na-streleckem-ostrove-1300289.jpg
Czechia,Kollárova,FC Sellier & Bellot Vlašim,"Vlašim , Czech Republic",1500,1927,,,49.7026028,14.8915,kollarova-25001308.jpg
Czechia,Doosan Arena,FC Viktoria Plzeň,"Plzeň , Czech Republic",11700,1955,,,49.75,13.38556,doosan-arena-1300298.jpg
Czechia,Na Litavce,1.FK Příbram,"Příbram , Czech Republic",9100,1955,,,49.67694,13.97639,na-litavce-116157.jpg
Czechia,U Nisy,FC Slovan Liberec,"Liberec , Czech Republic",9900,,,,50.77611,15.05,u-nisy-1300295.jpg
Czechia,Stovky,MFK Frýdek-Místek,"Frýdek-Místek , Czech Republic",2400,1976,,,49.695697,18.3429535,stovky-136193.jpg
Czechia,Městský Stadion Miroslava Valenty,1. FC Slovácko,"Uherské Hradiště , Czech Republic",8121,2003,,,49.06556,17.47139,mestsky-stadion-miroslava-valenty-131290.jpg
Czechia,Na Střelnici,FK Jablonec,"Jablonec nad Nisou , Czech Republic",6108,1955,,2003,50.715,15.16222,na-strelnici-1300291.jpg
Czechia,Městský Stadion,MFK Karviná,"Karviná , Czech Republic",4833,1952,,,49.8453,18.5613,mestsky-stadion-1300308.jpg
Czechia,Viktoria Žižkov,FK Viktoria Žižkov,"Prague , Czech Republic",2799,1952,,,50.0839167,14.4446056,viktoria-zizkov-1300299.jpg
Czechia,Fortuna Arena,SK Slavia Praha,"Prague , Czech Republic",19370,2008,,,50.0675,14.47167,fortuna-arena-1300294.jpg
Czechia,Letná,FC Zlín,"Zlín , Czech Republic",5898,1953,,,49.23139,17.66944,letna-136149.jpg
Denmark,DS Arena,Hobro Idræts Klub,"Hobro , Denmark",7500,1958,,,56.635,9.82,ds-arena-930211.jpg
Denmark,Energi Viborg Arena,Viborg Fodsports Forening,"Viborg, Denmark",10000,1931,,,56.45583,9.40194,energi-viborg-arena-912.jpg
Denmark,Østerbro Stadion,Boldklubben af 1893,"Copenhagen, Denmark",3800,,,,55.704126,12.57485,sterbro-stadion-826.jpg
Denmark,HSM Arena,Football Club Djursland,"Nykøbing Falster , Denmark",10000,,,,54.772472,11.875333,hsm-arena-930203.jpg
Denmark,ALPI Arena,Næsby Boldklub,"Odense, Denmark",2500,,,,55.433173,10.340084,alpi-arena-878.jpg
Denmark,Monjasa Park,Fodbold Club Fredericia,"Fredericia, Denmark",10000,2006,,,55.57825,9.7286,monjasa-park-27004958.jpg
Denmark,Parken,Football Club København,"Copenhagen , Denmark",38190,1992,,,55.7024694,12.5722028,parken-838.jpg
Denmark,Middelfart Stadion,Middelfart Boldklub,"Middelfart, Denmark",4000,,,,55.503983,9.71497799999997,middelfart-stadion-930249.jpg
Denmark,Lyngby Stadion,Lyngby Boldklub,"Kongens Lyngby, Denmark",10000,,,,55.78134,12.505628,lyngby-stadion-875.jpg
Denmark,Brøndby Stadion,Brøndbyernes Idrætsforening,"Brøndby , Denmark",28000,1966,,,55.64889,12.41861,brndby-stadion-830.jpg
Denmark,JYSK Park,Silkeborg Idrætsforening,"Silkeborg , Denmark",10000,2017,,,56.184302,9.575658,jysk-park-29129395.jpg
Denmark,Cepheus Park Randers,Randers Football Club,"Randers, Denmark",10300,,,,56.46594,10.010262,cepheus-park-randers-890.jpg
Denmark,Ceres Park & Arena,Aarhus Gymnastikforening,"Aarhus, Denmark",19433,1920,,,56.132033,10.196589,ceres-park-arena-817.jpg
Denmark,Right to Dream Park,Football Club Nordsjælland,"Farum, Denmark",10300,1999,,,55.815847,12.353289,right-to-dream-park-837.jpg
Denmark,Roskilde Idrætspark,Football Club Roskilde,"Roskilde, Denmark",6000,,,,55.636838,12.072474,roskilde-idrtspark-894.jpg
Denmark,Vejle Stadion,Vejle Boldklub,"Vejle, Denmark",11060,2008,,,55.7138139,9.5571611,vejle-stadion-1705043.jpg
Denmark,Soffy Road,Vejgaard Boldspilklub,"Aalborg , Denmark",1000,1980,,,,,soffy-road-933833.jpg
Denmark,Gentofte Sportspark,Hellerup Idræts Klub,"Gentofte, Denmark",15000,1942,,,55.75806,12.52722,gentofte-sportspark-851.jpg
Denmark,Gladsaxe Stadion,Akademisk Boldklub Gladsaxe,"Søborg, Denmark",13507,1940,,,55.7328,12.4967,gladsaxe-stadion-846.jpg
Denmark,Blue Water Arena,Esbjerg forenede Boldklubber,"Esbjerg, Denmark",16942,1955,,,55.481985,8.43941,blue-water-arena-835.jpg
Denmark,Autocentralen Park,Kolding Idrætsforening,"Kolding, Denmark",10000,1931,,,55.49417,9.45917,autocentralen-park-871.jpg
Denmark,Aalborg Portland Park,Aalborg Boldspilklub,"Aalborg, Denmark",13600,1920,,,57.052056,9.898556,aalborg-portland-park-813.jpg
Denmark,Sydbank Park,Sønderjyske Fodbold,"Haderslev, Denmark",10100,2001,,,55.2613591,9.4877914,sydbank-park-849.jpg
Denmark,MCH Arena,Football Club Midtjylland,"Herning, Denmark",12055,2004,,,56.116868,8.951669,mch-arena-934952.jpg
Denmark,Holbæk Stadion,,"Hobro , Denmark",7500,1958,,,56.635,9.82,holbk-stadion-858.jpg
Denmark,Sundby Idrætspark,Boldklubben af 1908,"Copenhagen, Denmark",7200,1922,,,55.650044,12.602123,sundby-idrtspark-3400011.jpg
Denmark,Riisvangen Stadion,FC Aarhus,"Aarhus, Denmark",5000,1939,,,56.17882,10.21099,riisvangen-stadion-816.jpg
Dominican Republic,Estadio Olímpico Félix Sánchez,Club Deportivo Pantoja,"Santo Domingo , Dominican Republic",27000,1974,,,18.480454,-69.918662,estadio-olimpico-felix-sanchez-103156.jpg
Egypt,Khaled Bichara Stadium,El Gouna Football Club,"El Gouna , Egypt",12000,2009,,,27.36,33.66,khaled-bichara-stadium-12033284.jpg
Egypt,Alexandria Stadium,Al-Ittihad Alexandria,"Alexandria , Egypt",13660,1929,,,31.197096,29.913239,alexandria-stadium-105228.jpg
Egypt,30 June Stadium,Coca-Cola Football Club,"Cairo, Egypt",30000,2012,,,30.02,31.37361,30-june-stadium-13196537.jpg
Egypt,Haras El-Hodoud Stadium,Haras El Hodoud,"Alexandria , Egypt",22000,,,,31.150936,29.848453,haras-el-hodoud-stadium-23017658.jpg
Egypt,Petro Sport Stadium,ENPPI Club,"New Cairo , Egypt",16000,2006,,,30.027,31.446,petro-sport-stadium-12040733.jpg
Egypt,Ismailia Stadium,Ismaily Sporting Club,"Ismailia , Egypt",30000,,2009,,30.60111,32.27361,ismailia-stadium-105230.jpg
Egypt,Cairo International Stadium,"Ahly Al-Monshah, Zamalek Sporting Club","Cairo, Egypt",75000,1960,,,30.0691139,31.3123333,cairo-international-stadium-103037.jpg
Egypt,Military Academy Stadium,Tala'ea Al-Gaish,"Cairo, Egypt",28500,1989,,,30.111095,31.367565,military-academy-stadium-23017659.jpg
Egypt,Suez Sports Stadium,Suez Cement,"Suez , Egypt",27000,1990,,,29.9575,32.5425,suez-sports-stadium-23017665.jpg
El Salvador,Estadio Cuscatlán,CD Atlético Marte,"San Salvador , El Salvador",44836,1976,,,13.68111,-89.2225,estadio-cuscatlan-308288.jpg
El Salvador,Estadio Juan Francisco Barraza,C.D. Águila,"San Miguel, El Salvador",14000,,,,13.482576,-88.169038,estadio-juan-francisco-barraza-308287.jpg
El Salvador,Estadio Oscar Alberto Quiteño,CD FAS,"Santa Ana, El Salvador",17500,1963,,,13.97645,-89.56884,estadio-oscar-alberto-quiteno-308285.jpg
England,Old Trafford,Manchester United,"Manchester ,  England",74197,1910,,,53.46306,-2.29139,old-trafford-680.jpg
England,One Call Stadium,Mansfield Town,"Mansfield, England",9186,,,,53.13806,-1.20056,one-call-stadium-681.jpg
England,Brunton Park,Carlisle United,"Carlisle ,  England",17949,1909,,,54.8956,-2.9137,brunton-park-626.jpg
England,Kenilworth Road,Luton Town,"Luton , England",12056,1905,,,51.88417,-0.43167,kenilworth-road-677.jpg
England,Mill Farm,AFC Fylde,"Wesham , England",6000,2016,,,53.7973,-2.8895,mill-farm-90063867.jpg
England,Highbury Stadium,Fleetwood Town,"Fleetwood , England",5327,1939,,,53.9165,-3.0247,highbury-stadium-7940023.jpg
England,Croud Meadow,Shrewsbury Town,"Shrewsbury , England",9875,2007,,,52.6886,-2.7493,croud-meadow-29005271.jpg
England,Oakwell,Barnsley,"Barnsley , England",23287,,,,53.55222,-1.4675,oakwell-606.jpg
England,The Recreation Ground,Aldershot Town,"Aldershot , England",7100,1927,,,51.24833,-0.75472,the-recreation-ground-5100174.jpg
England,Kingfield Stadium,Woking,"Woking , England",6000,1922,,,51.3063333,-0.5588111,kingfield-stadium-739.jpg
England,Deva Stadium,Chester,"Chester , England",5400,1992,,,53.1892,-2.9238,deva-stadium-633.jpg
England,Molineux,Wolverhampton Wanderers,"Wolverhampton , England",31750,,,,52.59028,-2.13028,molineux-740.jpg
England,Crown Oil Arena,Rochdale,"Rochdale , England",10249,,,,53.62083,-2.18,crown-oil-arena-703.jpg
England,Turf Moor,Burnley,"Burnley , England",21944,,,,53.78917,-2.23028,turf-moor-622.jpg
England,Gtech Community Stadium,Brentford,"London , England",17250,2020,,,51.49083,-0.28861,gtech-community-stadium-29128182.jpg
England,Vicarage Road,Watford,"Watford , England",22220,1921,,,51.64972,-0.40139,vicarage-road-732.jpg
England,bet365 Stadium,Stoke City,"Stoke-on-Trent,  England",30089,1997,,,52.98833,-2.17556,bet365-stadium-100076.jpg
England,LNER Stadium,Lincoln City,"Lincoln , England",10669,,,,53.21833,-0.54083,lner-stadium-675.jpg
England,The Den,Millwall,"London , England",20146,1993,,,51.48583,-0.05083,the-den-686.jpg
England,Elland Road,Leeds United,"Leeds , England",37645,,,,53.77778,-1.57222,elland-road-671.jpg
England,MKM Stadium,Hull City,"Hull , England",25586,2002,,,53.74611,-0.36778,mkm-stadium-5105217.jpg
England,Stadium MK,Milton Keynes Dons,"Milton Keynes , England",30500,2007,,,52.00944,-0.73333,stadium-mk-5114356.jpg
England,Meadow Park,Sunderland Ryhope CA,"Sunderland , England",49000,1997,,,54.9144290694,-1.3881729694,meadow-park-29074488.jpg
England,Edgeley Park,Stockport County,"Stockport , England",10852,,,,53.39972,-2.16639,edgeley-park-720.jpg
England,Sixfields,Northampton Town,"Northampton , England",8203,1994,,,52.23528,-0.93333,sixfields-689.jpg
England,New Bucks Head,AFC Telford United,"Wellington , England",6300,2003,,,52.6974,-2.5014,new-bucks-head-726.jpg
England,EnviroVent Stadium,Harrogate Town,"Harrogate , England",5000,1920,,,53.99167,-1.51444,envirovent-stadium-5100048.jpg
England,Emirates Stadium,Arsenal,"London , England",60704,2006,,,51.5550821,-0.1083998,emirates-stadium-5114336.jpg
England,The Valley,Charlton Athletic,"London , England",27111,1919,,1985,51.48639,0.03639,the-valley-628.jpg
England,Wembley,,"London , England",90000,2007,,,51.55556,-0.27944,wembley-102969.jpg
England,Villa Park,Aston Villa,"Birmingham , England",43205,,,,52.50917,-1.88472,villa-park-603.jpg
England,Vale Park,Port Vale,"Stoke-on-Trent , England",16800,1950,,,53.04972,-2.1925,vale-park-698.jpg
England,Poundland Bescot Stadium,Walsall,"Walsall , England",11300,1990,,,52.5655,-1.9909,poundland-bescot-stadium-731.jpg
England,Stonebridge Road,Ebbsfleet United,"Northfleet, England",4769,1905,,,51.44944,0.32222,stonebridge-road-5100158.jpg
England,JobServe Community Stadium,Colchester United,"Colchester , England",10105,2008,,,51.923,0.898,jobserve-community-stadium-156499.jpg
England,Priestfield Stadium,Gillingham,"Gillingham , England",11582,,,,51.38417,0.56083,priestfield-stadium-656.jpg
England,Home Park,Plymouth Argyle,"Plymouth , England",17900,,,,50.38806,-4.15083,home-park-697.jpg
England,Mazuma Mobile Stadium,Morecambe,"Morecambe , England",6476,2010,,,54.0615,-2.8672,mazuma-mobile-stadium-29039507.jpg
England,Etihad Stadium,Manchester City,"Manchester , England",4998,2014,,,53.48111,2.19278,etihad-stadium-5114325.jpg
England,Gateshead International Stadium,Gateshead,"Gateshead , England",11800,1955,,,54.96111,-1.57972,gateshead-international-stadium-655.jpg
England,SMH Group Stadium,Chesterfield,"Chesterfield , England",10292,2010,,,53.25361,1.42583,smh-group-stadium-29059109.jpg
England,Boundary Park,Oldham Athletic,"Oldham , England",13186,1904,,,53.55528,-2.12861,boundary-park-694.jpg
England,Coventry Building Society Arena,Coventry City,"Coventry , England",40000,2005,,,52.44806,-1.49556,coventry-building-society-arena-5009114.jpg
England,Meadow Lane,Notts County,"Nottingham , England",19841,1910,,,52.9425,-1.13722,meadow-lane-693.jpg
England,Blundell Park,Grimsby Town,"Cleethorpes , England",9546,,,,53.57028,-0.04639,blundell-park-658.jpg
England,Fratton Park,Portsmouth,"Portsmouth , England",20867,,,,50.79639,-1.06389,fratton-park-699.jpg
England,Attis Arena,Scunthorpe United,"Scunthorpe , England",9088,1988,,,53.58667,0.69528,attis-arena-707.jpg
England,Huish Park,Yeovil Town,"Yeovil , England",9565,1990,,,50.95028,-2.67389,huish-park-743.jpg
England,City Ground,Nottingham Forest,"Nottingham , England",30404,,,,52.94,-1.13278,city-ground-692.jpg
England,The New Lawn,Forest Green Rovers,"Nailsworth , England",5147,2006,,,51.69889,-2.23778,the-new-lawn-28007250.jpg
England,Aggborough,Kidderminster Harriers,"Kidderminster , England",6444,,,,52.38056,-2.24278,aggborough-669.jpg
England,St. James' Park,Newcastle United,"Newcastle , England",52264,,,,54.97556,1.62167,st-james-park-688.jpg
England,Broadfield Stadium,Crawley Town,"Crawley, England",5567,1997,,,51.09972,-0.19472,broadfield-stadium-640.jpg
England,Gigg Lane,Bury,"Bury , England",12500,,,,53.58056,-2.29472,gigg-lane-623.jpg
England,The County Ground,Swindon Town,"Swindon , England",14753,1892,,,51.56444,-1.77056,the-county-ground-725.jpg
England,Cledara Abbey Stadium,Cambridge United,"Cambridge , England",7937,1932,,,52.2121,0.15415,cledara-abbey-stadium-624.jpg
England,Ashton Gate,Bristol City,"Bristol , England",26462,,,,51.44,-2.62028,ashton-gate-619.jpg
England,Craven Cottage,Fulham,"London , England",28800,,,,51.475,-0.22167,craven-cottage-654.jpg
England,Bramall Lane,Sheffield United,"Sheffield , England",32050,,,,53.37028,-1.47083,bramall-lane-708.jpg
England,Bower Fold,Stalybridge Celtic,"Stalybridge , England",6500,,,,53.47528,-2.04389,bower-fold-718.jpg
England,The Walks Stadium,King's Lynn,"King's Lynn , England",8200,,,,52.7501,0.4074,the-walks-stadium-113523.jpg
England,Hayes Lane,Bromley,"London , England",5000,1938,,,51.39,0.02111,hayes-lane-5100154.jpg
England,St. Andrew's @ Knighthead Park,Birmingham City,"Birmingham , England",29409,1906,,,52.47583,1.86806,st-andrews-knighthead-park-609.jpg
England,Brisbane Road,Leyton Orient,"Leyton , England",9271,,,,51.56028,-0.01278,brisbane-road-674.jpg
England,Ewood Park,Blackburn Rovers,"Blackburn , England",31367,,,,53.72861,2.48917,ewood-park-612.jpg
England,Silverlake Stadium,Eastleigh,"Eastleigh , England",5192,1957,,,50.95222,-1.3717,silverlake-stadium-8600598.jpg
England,DW Stadium,Wigan Athletic,"Wigan , England",25138,1999,,,53.54778,-2.65389,dw-stadium-737.jpg
England,The John Smith's Stadium,Huddersfield Town,"Huddersfield , England",24121,1994,,,53.65417,-1.76833,the-john-smiths-stadium-664.jpg
England,The Toughsheet Community Stadium,Bolton Wanderers,"Bolton , England",28723,1997,,,53.58056,-2.53556,the-toughsheet-community-stadium-614.jpg
England,Crabble Athletic Ground,Dover Athletic,"River, England",6500,,,,51.138,1.285,crabble-athletic-ground-647.jpg
England,Prenton Park,Tranmere Rovers,"Birkenhead , England",16587,1912,,,53.37361,-3.0325,prenton-park-729.jpg
England,Keys Park,Hednesford Town,"Hednesford , England",6039,,,,52.6976,-1.9888306,keys-park-106581.jpg
England,The Kassam Stadium,Oxford United,"Oxford , England",12500,2001,,,51.71639,-1.20806,the-kassam-stadium-5105151.jpg
England,Eco-Power Stadium,Doncaster Rovers,"Doncaster , England",15231,2007,,,53.50972,-1.11389,eco-power-stadium-5121942.jpg
England,The Hive,Barnet,"London , England",6500,2013,,,51.602599,-0.291785,the-hive-1371.jpg
England,Selhurst Park,Crystal Palace,"London , England",25486,1924,,,51.39833,0.08556,selhurst-park-642.jpg
England,The Tottenham Hotspur Stadium,Tottenham Hotspur,"London , England",62850,2019,,,51.60444,-0.06639,the-tottenham-hotspur-stadium-28096287.jpg
England,MATRADE Loftus Road Stadium,Queens Park Rangers,"London , England",18439,1904,,,51.50917,-0.23222,matrade-loftus-road-stadium-701.jpg
England,Cherry Red Records Stadium,AFC Wimbledon,"London , England",9215,2020,,,51.43139,-0.18667,cherry-red-records-stadium-211584.jpg
England,Pirelli Stadium,Burton Albion,"Burton-on-Trent , England",6912,2005,,,52.82194,-1.62694,pirelli-stadium-5006861.jpg
England,Hillsborough,Sheffield Wednesday,"Sheffield , England",39732,,,,53.41139,-1.50056,hillsborough-709.jpg
England,Bloomfield Road,Blackpool,"Blackpool , England",16500,,,,53.80472,-3.04806,bloomfield-road-613.jpg
England,Goodison Park,Everton,"Liverpool , England",39414,,,,53.43889,-2.96639,goodison-park-650.jpg
England,Adams Park,Wycombe Wanderers,"Wycombe , England",10446,1990,,,51.63056,-0.80028,adams-park-742.jpg
England,Carrow Road,Norwich City,"Norwich , England",27150,1935,,,52.62222,1.30917,carrow-road-691.jpg
England,London Stadium,West Ham United,"London , England",62500,2012,,,51.53861,-0.01639,london-stadium-29076584.jpg
England,Westleigh Park,Havant & Waterlooville,"Havant , England",5300,,,,50.8670778,-0.9741389,westleigh-park-5100133.jpg
England,Riverside Stadium,Middlesbrough,"Middlesbrough , England",34742,1995,,,54.57833,1.21694,riverside-stadium-685.jpg
England,Portman Road,Ipswich Town,"Ipswich , England",30056,,,,52.055,1.14472,portman-road-667.jpg
England,Plainmoor,Torquay United,"Torquay , England",6200,1921,,,50.47639,-3.52389,plainmoor-727.jpg
England,Twerton Park,Bath City,"Bath , England",8840,1909,,,51.3788,-2.395,twerton-park-608.jpg
England,The Hawthorns,West Bromwich Albion,"West Bromwich , England",26804,1900,,,52.50917,-1.96389,the-hawthorns-734.jpg
England,King Power Stadium,Leicester City,"Leicester , England",32259,2002,,,52.62028,-1.14222,king-power-stadium-5110660.jpg
England,The Lamex Stadium,Stevenage,"Stevenage , England",7318,1961,,,51.8898389,-0.1936083,the-lamex-stadium-719.jpg
England,St. Mary's Stadium,Southampton,"Southampton , England",32384,2001,,,50.90583,-1.39111,st-marys-stadium-5102453.jpg
England,Deepdale,Preston North End,"Preston , England",23404,,,,53.77222,-2.68806,deepdale-700.jpg
England,The Shay,FC Halifax Town,"Halifax , England",10401,1921,,,53.71611,-1.85917,the-shay-660.jpg
England,Moss Rose,Macclesfield Town,"Macclesfield , England",5300,,,,53.24278,-2.12722,moss-rose-678.jpg
England,AESSEAL New York Stadium,Rotherham United,"Rotherham , England",12021,2012,,,53.4279,-1.362,aesseal-new-york-stadium-29082569.jpg
England,Roots Hall,Southend United,"Southend-on-Sea , England",12392,1955,,,51.54917,0.70167,roots-hall-714.jpg
England,Stadium of Light,Sunderland,"Sunderland , England",49000,1997,,,54.9144290694,-1.3881729694,stadium-of-light-722.jpg
England,Wham Stadium,Accrington Stanley,"Accrington , England",5450,1968,,,53.76528,-2.37083,wham-stadium-109219.jpg
Equatorial Guinea,Nuevo Estadio de Malabo,Sony Elá Nguema,"Malabo , Equatorial Guinea",15250,2007,,,3.725,8.76917,nuevo-estadio-de-malabo-12010509.jpg
Eritrea,Cicero Stadium,Tesfa FC,"Asmara , Eritrea",10000,1939,,,15.3492722,38.9212556,cicero-stadium-129513.jpg
Estonia,Kadrioru staadion,FC Levadia Tallinn,"Tallinn , Estonia",5000,1926,,,59.4344722,24.7834444,kadrioru-staadion-1300316.jpg
Estonia,Hiiu kunstmurustaadion,Tallinna JK Jalgpallihaigla,"Laagri, Estonia",500,2005,,,59.3504306,24.6165389,hiiu-kunstmurustaadion-31001099.jpg
Estonia,Lilleküla staadion,FC Flora Tallinn,"Tallinn , Estonia",14336,2001,,,59.42139,24.73194,lillekula-staadion-5220182.jpg
Ethiopia,Addis Ababa Stadium,Saint George Sports Club,"Addis Ababa , Ethiopia",20000,1940,,,9.013306,38.756417,addis-ababa-stadium-103039.jpg
Ethiopia,Bahir Dar Stadium,Bahir Dar Kenema,"Bahir Dar , Ethiopia",52000,,,,11.584528,37.382944,bahir-dar-stadium-13206166.jpg
Faroe Islands,Tórsvøllur,,"Tórshavn , Faroe Islands",6500,1999,,,62.01917,-6.77806,torsvllur-8300371.jpg
Fiji,National Stadium,Suva FC,"Suva, Fiji",15446,,,,-18.15,178.44917,national-stadium-103185.jpg
Finland,Raatin stadion,AC Oulu,"Oulu , Finland",4392,1953,,,65.01972,25.46583,raatin-stadion-127400.jpg
Finland,Rovaniemen keskuskenttä,Rovaniemen Palloseura,"Rovaniemi, Finland",2800,1953,,,66.49972,25.72167,rovaniemen-keskuskentta-1300367.jpg
Finland,Töölön jalkapallostadion,Helsingin Jalkapalloklubi,"Helsinki , Finland",10770,2000,,,60.1875,24.9225,toolon-jalkapallostadion-115602.jpg
Finland,Kuopion keskuskenttä,Kuopion Palloseura,"Kuopio , Finland",3000,1939,,,62.88463,27.6718,kuopion-keskuskentta-521612.jpg
Finland,Harjun stadion,Jyväskylän Jalkapalloklubi,"Jyväskylä , Finland",5000,1926,,,62.24472,25.74083,harjun-stadion-510001.jpg
Finland,Lahden stadion,FC Lahti,"Lahti , Finland",14465,1981,,,60.98306,25.63417,lahden-stadion-1300369.jpg
Finland,Arto Tolsa Areena,FC KooTeePee,"Kotka , Finland",4780,1952,,,60.4575,26.93972,arto-tolsa-areena-121264.jpg
Finland,Pohjan Stadion,Tornion Pallo-47,"Pori , Finland",12300,1965,,,61.47667,21.77444,pohjan-stadion-510057.jpg
Finland,Tehtaan kenttä,Valkeakosken Haka,"Valkeakoski , Finland",3516,1934,,,61.26806,24.02028,tehtaan-kentta-1300365.jpg
Finland,Tapiolan urheilupuisto,,"Espoo, Finland",6000,2029,,,60.179111,24.781306,tapiolan-urheilupuisto-129133.jpg
Finland,Porin Stadion,Musan Salama,"Pori , Finland",12300,1965,,,61.47667,21.77444,porin-stadion-1300368.jpg
Finland,Tammelan stadion,Tampere United,"Tampere , Finland",8017,2023,,,61.5003,23.7853,tammelan-stadion-1300366.jpg
France,Decathlon Arena - Stade Pierre Mauroy,LOSC Lille,"Lille , France",50186,2012,,,50.6119,3.1304,decathlon-arena-stade-pierre-mauroy-34012570.jpg
France,Roazhon Park,Stade Rennais FC,"Rennes , France",29778,1912,,,48.1075,-1.71278,roazhon-park-995.jpg
France,Stade du Moustoir - Yves Allainmat,FC Lorient,"Lorient , France",18110,1959,,,47.74889,-3.36944,stade-du-moustoir-yves-allainmat-948.jpg
France,Stade de la Rabine,Vannes OC,"Vannes , France",11303,2001,,,47.65194,-2.76111,stade-de-la-rabine-6200179.jpg
France,Stade Francis-Le Blé,Stade Brestois 29,"Brest, France",15220,1922,,,48.402932,-4.461694,stade-francis-le-ble-990.jpg
France,Stade Océane,Havre AC,"Le Havre , France",25178,2012,,,49.49889,0.16972,stade-oceane-8442058.jpg
France,Stade Léo Lagrange,Stade Nazairien,"Besançon , France",10500,1939,,,47.243847,6.003274,stade-leo-lagrange-34012414.jpg
France,Stade Bauer,Red Star FC,"Paris , France",5600,1909,"1922–1923, 1947, 1975, 2021",,48.9058,2.3408,stade-bauer-982.jpg
France,Stadium de Toulouse,Toulouse FC,"Toulouse , France",33150,1937,,,43.58306,1.43417,stadium-de-toulouse-996.jpg
France,Stade Geoffroy-Guichard,AS Saint-Étienne,"Saint-Étienne , France",41965,1931,,,45.46083,4.39028,stade-geoffroy-guichard-928.jpg
France,Stade Gaston-Gérard,Dijon FCO,"Dijon , France",15459,1934,,,47.324383,5.068342,stade-gaston-gerard-934.jpg
France,Stade Robert-Bobin,FC Fleury 91,"Bondoufle , France",18850,1994,,,48.622162,2.393018,stade-robert-bobin-50067919.jpg
France,Stade Gabriel-Montpied,Clermont Foot 63,"Clermont-Ferrand , France",10800,1995,,,45.81582,3.121651,stade-gabriel-montpied-938.jpg
France,Stade Léo-Lagrange de Poissy,,"Besançon , France",10500,1939,,,47.243847,6.003274,stade-leo-lagrange-de-poissy-914538.jpg
France,Parc des Princes,Paris Saint-Germain,"Paris , France",47929,1897,1972,,48.841471,2.253012,parc-des-princes-977.jpg
France,Stade Abbé-Deschamps,AJ Auxerre,"Auxerre , France",18541,1918,,,47.7867528,3.5886639,stade-abbe-deschamps-919.jpg
France,Parc des Sports d'Annecy,Annecy,"Annecy , France",15660,1964,,,45.916497,6.118054,parc-des-sports-dannecy-6200208.jpg
France,Stade Orange Vélodrome,Olympique de Marseille,"Marseille, France",67394,1937,,,43.26972,5.39583,stade-orange-velodrome-975.jpg
France,Stade Paul-Lignon,Rodez Aveyron Football,"Rodez, France",6800,1940,2019,,44.351667,2.563611,stade-paul-lignon-984.jpg
France,Stade Pierre-Brisson,AS Beauvais Oise,"Beauvais , France",10178,,,,49.43167,2.11389,stade-pierre-brisson-922.jpg
France,Stade Marcel-Picot,AS Nancy Lorraine,"Tomblaine , France",20087,1926,,,48.6955,6.210687,stade-marcel-picot-927.jpg
France,Stade Charléty,Paris FC,"Paris , France",20000,1939,1994,,48.81861,2.34667,stade-charlety-6201378.jpg
France,Stade Auguste-Delaune,Stade de Reims,"Reims , France",21029,1935,,,49.24667,4.025,stade-auguste-delaune-983.jpg
France,Stade Bollaert-Delelis,RC Lens,"Lens , France",38223,1933,,,50.43278,2.815,stade-bollaert-delelis-980.jpg
France,Stade Crédit Agricole La Licorne,Amiens SC,"Amiens , France",12097,1999,,,49.894209,2.263312,stade-credit-agricole-la-licorne-6200321.jpg
France,Matmut Atlantique,FC Girondins de Bordeaux,"Bordeaux , France",42115,2015,,,44.89722,-0.56167,matmut-atlantique-48031770.jpg
France,Stade Gaston-Petit,La Berrichonne de Châteauroux,"Châteauroux, France",17173,1964,,,46.80194,1.72167,stade-gaston-petit-936.jpg
France,Stade Armand-Cesari,SC Bastia,"Furiani , France",16048,1932,,,42.65139,9.44278,stade-armand-cesari-987.jpg
France,Stade Francis Le Basser,Stade Lavallois MFC,"Laval , France",11107,1969,,,48.0825,-0.75472,stade-francis-le-basser-991.jpg
France,Stade Jean Laville,Football Club Gueugnonnais,"Gueugnon , France",13800,1919,,,46.5950861,4.0560583,stade-jean-laville-946.jpg
France,Stade du Hainaut,Valenciennes FC,"Valenciennes , France",25172,2011,,,50.348389,3.531611,stade-du-hainaut-34007838.jpg
France,Stade Léo Lagrange,Besançon Football,"Besançon , France",10500,1939,,,47.243847,6.003274,stade-leo-lagrange-931.jpg
France,Stade Auguste-Bonal,FC Sochaux-Montbéliard,"Montbéliard, France",20025,1931,,,47.5125,6.81111,stade-auguste-bonal-957.jpg
France,Stade Michel-Amand (ex Stade de la Pépinière),Stade Poitevin Football Club,"Poitiers , France",12000,1989,,,46.5951845,0.3641732,stade-michel-amand-ex-stade-de-la-pepiniere-994.jpg
France,Stade de Roudourou,En Avant Guingamp,"Guingamp , France",19033,1990,,,48.566285,-3.164599,stade-de-roudourou-942.jpg
France,Stade de La Meinau,RC Strasbourg Alsace,"Strasbourg , France",26109,1914,,,48.56,7.755,stade-de-la-meinau-981.jpg
France,Stade François Coty,AC Ajaccio,"Ajaccio  , France",10446,1968,,,41.9310806,8.776725,stade-francois-coty-3500150.jpg
France,Stade Saint-Symphorien,FC Metz,"Metz , France",30000,1923,,,49.109813,6.159511,stade-saint-symphorien-950.jpg
France,Stade Michel-d'Ornano,Stade Malherbe Caen,"Caen , France",20300,1993,,,49.1794611,-0.3967667,stade-michel-dornano-992.jpg
France,Stade des Alpes,Grenoble Foot 38,"Grenoble, France",20068,2008,,,45.187428,5.740099,stade-des-alpes-8430432.jpg
France,Stade Dominique Duvauchelle,Union Sportive Créteil-Lusitanos Football,"Créteil , France",12150,1983,,,48.76806,2.46167,stade-dominique-duvauchelle-998.jpg
France,Stade de l'Aube,ESTAC Troyes,"Troyes , France",20400,1924,,,48.307561,4.098458,stade-de-laube-929.jpg
France,Stade de la Vallée du Cher,Tours FC,"Tours , France",16247,1978,,,47.3760917,0.7284222,stade-de-la-vallee-du-cher-958.jpg
France,Stade de la Source,US Orléans,"Orléans, France",7533,1976,"2011, 2014, 2015",,47.8402,1.9411,stade-de-la-source-914708.jpg
France,Stade de la Mosson,Montpellier Hérault SC,"Montpellier , France",20484,1972,,,43.62222,3.81194,stade-de-la-mosson-967.jpg
France,Stade Louis Dugauguez,Club Sportif Sedan Ardennes,"Sedan , France",23189,2000,,,49.694147,4.938847,stade-louis-dugauguez-910859.jpg
France,Stade Robert-Diochon,FC Rouen 1899,"Le Petit-Quevilly , France",8372,1917,,,49.411078,1.070738,stade-robert-diochon-954.jpg
France,Stade Raymond-Kopa,Angers SCO,"Angers , France",19800,1912,,,47.460458,-0.530741,stade-raymond-kopa-986.jpg
France,Stade Georges Pompidou,Olympique de Valence,"Valence , France",15128,1974,,,48.87667,2.52222,stade-georges-pompidou-921.jpg
France,Stade Léo Lagrange,Union Sportive Maubeugeoise,"Besançon , France",10500,1939,,,47.243847,6.003274,stade-leo-lagrange-85048623.jpg
France,Stade Parsemain,Istres FC,"Fos-sur-Mer , France",12500,2005,,,43.46932111,4.94937667,stade-parsemain-8434673.jpg
France,Stade de la Beaujoire - Louis Fonteneau,FC Nantes,"Nantes , France",35318,1984,,,47.256,-1.525,stade-de-la-beaujoire-louis-fonteneau-952.jpg
France,Allianz Riviera,OGC Nice,"Nice , France",36178,2013,,,43.70528,7.1925,allianz-riviera-8437525.jpg
France,Stade Marie Marvingt,Le Mans FC,"Le Mans , France",25064,2011,,,47.959,0.2234,stade-marie-marvingt-8437659.jpg
Georgia,Tengiz Burjanadzis Sakhelobis Stadioni,Dila Gori,"Gori , Georgia",5000,,,,41.98306,44.10389,tengiz-burjanadzis-sakhelobis-stadioni-1300396.jpg
Georgia,Tamaz Stepanias Sakhelobis Stadioni,Sioni Bolnisi,"Bolnisi , Georgia",3000,,,,41.447997,44.535186,tamaz-stepanias-sakhelobis-stadioni-1300527.jpg
Georgia,Poladi,Olimpi Rustavi,"Rustavi , Georgia",4657,,,,41.541,45.0069444,poladi-1300509.jpg
Georgia,Mikheil Meskhis Sakhelobis Stadioni,Spartaki Tbilisi,Tbilisi Georgia,22,1952,,,41.70972,44.74611,mikheil-meskhis-sakhelobis-stadioni-492756.jpg
Georgia,Boris Paichadzis Sakhelobis Dinamo Arena,Dinamo Tbilisi,"Tbilisi , Georgia",54202,,,,41.72306,44.78972,boris-paichadzis-sakhelobis-dinamo-arena-1300401.jpg
Georgia,Ramaz Shengelias Sakhelobis Stadioni,Torpedo-2008 Kutaisi,"Kutaisi , Georgia",11700,,,,42.2551413,42.6830864,ramaz-shengelias-sakhelobis-stadioni-1300511.jpg
Germany,BRITA-Arena,SV Wehen Wiesbaden,"Wiesbaden , Germany",15295,2007,,,50.07139,8.25667,brita-arena-91004216.jpg
Germany,Südstadion,SC Fortuna Köln,"Cologne , Germany",11748,1979,,,50.9175,6.9436,sudstadion-1323.jpg
Germany,Sportpark Ronhof | Thomas Sommer,SpVgg Greuther Fürth,"Fürth , Germany",15606,1910,,,49.48694,10.99917,sportpark-ronhof-thomas-sommer-1330.jpg
Germany,BORUSSIA-PARK,Borussia Mönchengladbach,"Mönchengladbach , Germany",54057,2004,,,51.17472,6.38556,borussia-park-8701015.jpg
Germany,Stadion auf der Waldau,SV Stuttgarter Kickers,"Stuttgart , Germany",11410,1905,,,48.753944,9.188417,stadion-auf-der-waldau-1334.jpg
Germany,Max-Morlock-Stadion,1. FC Nürnberg,"Nuremberg , Germany",50000,1928,,,49.42611,11.12583,max-morlock-stadion-1287.jpg
Germany,BayArena,Bayer 04 Leverkusen,"Leverkusen , Germany",30210,1958,,,51.03833,7.00222,bayarena-1291.jpg
Germany,Städtisches Stadion an der Grünwalder Straße,TSV 1860 München,"Munich , Germany",15000,1911,,,48.11083,11.57444,stadtisches-stadion-an-der-grunwalder-strae-6000062.jpg
Germany,"Weserstadion, Platz 11",SV Werder Bremen II,"Bremen , Germany",42100,1947,,,53.06639,8.8375,weserstadion-platz-11-6000024.jpg
Germany,Bremer Brücke,VfL Osnabrück,"Osnabrück , Germany",16100,1933,,,52.28083,8.07111,bremer-brucke-1350.jpg
Germany,GP Stadion am Hardtwald,SV Sandhausen,"Sandhausen , Germany",15414,1951,,,49.33222,8.64778,gp-stadion-am-hardtwald-6000036.jpg
Germany,MERKUR SPIEL-ARENA,Fortuna Düsseldorf 1895,"Düsseldorf , Germany",54600,2004,,,51.26167,6.73306,merkur-spiel-arena-8718293.jpg
Germany,Ostseestadion,FC Hansa Rostock,"Rostock , Germany",17000,1954,,,54.08495,12.0951889,ostseestadion-1306.jpg
Germany,Sportpark Unterhaching,SpVgg Unterhaching,"Unterhaching , Germany",15053,1992,,,48.07361,11.61556,sportpark-unterhaching-1331.jpg
Germany,Sportpark Höhenberg,FC Viktoria Köln,"Cologne , Germany",8343,1931,,,50.9452,7.0304,sportpark-hohenberg-879644.jpg
Germany,Vonovia Ruhrstadion,VfL Bochum 1848,"Bochum , Germany",26000,1911,,,51.49,7.23667,vonovia-ruhrstadion-1348.jpg
Germany,MEWA Arena,1. FSV Mainz 05,"Mainz , Germany",34000,2011,,,49.98417,8.22417,mewa-arena-29074561.jpg
Germany,Erzgebirgsstadion,FC Erzgebirge Aue,"Aue-Bad Schlema , Germany",15500,1928,,,50.59778,12.71111,erzgebirgsstadion-6000043.jpg
Germany,Fritz-Walter-Stadion,1. FC Kaiserslautern,"Kaiserslautern , Germany",49327,1920,,,49.43444,7.77611,fritz-walter-stadion-1285.jpg
Germany,PSD Bank Arena,FSV Frankfurt,"Frankfurt am Main , Germany",12542,1931,,,50.12806,8.72333,psd-bank-arena-1308.jpg
Germany,Olympiastadion Berlin,Hertha BSC,"Berlin , Germany",74475,1936,,,52.51472,13.23944,olympiastadion-berlin-1317.jpg
Germany,Neuer Tivoli,TSV Alemannia Aachen,"Aachen, Germany",32960,2009,,,50.79333,6.09722,neuer-tivoli-91013556.jpg
Germany,Eintracht-Stadion,Braunschweig TSV Eintracht,"Braunschweig , Germany",24406,1923,,,52.29,10.52167,eintracht-stadion-1302.jpg
Germany,Stadion an der Hafenstraße,Rot-Weiss Essen,"Essen , Germany",20650,2012,,,51.48667,6.97639,stadion-an-der-hafenstrae-91107967.jpg
Germany,RheinEnergieStadion,1. FC Köln,"Cologne , Germany",50000,1923,,2001,50.93361,6.875,rheinenergiestadion-1286.jpg
Germany,Eintracht-Stadion B-Platz,Braunschweiger TSV Eintracht II,"Braunschweig , Germany",24406,1923,,,52.29,10.52167,eintracht-stadion-b-platz-879421.jpg
Germany,Voith-Arena,1. FC Heidenheim 1846,"Heidenheim , Germany",15000,1972,,,48.66861,10.13944,voith-arena-880296.jpg
Germany,Volkswagen Arena,VfL Wolfsburg,"Wolfsburg , Germany",30000,2002,,,52.43278,10.80389,volkswagen-arena-1351.jpg
Germany,Europa-Park Stadion,Sport-Club Freiburg,"Freiburg im Breisgau , Germany",34700,2021,,,48.0216,7.8297,europa-park-stadion-91183670.jpg
Germany,Schauinsland-Reisen-Arena,MSV Duisburg,"Duisburg , Germany",31514,2004,,,51.40917,6.77861,schauinsland-reisen-arena-1322.jpg
Germany,Stadion der Freundschaft,FC Energie Cottbus,"Cottbus , Germany",22528,1930,,,51.75139,14.34556,stadion-der-freundschaft-1303.jpg
Germany,Home Deluxe Arena,SC Paderborn 07,"Paderborn , Germany",15000,2008,,,51.73083,8.71111,home-deluxe-arena-35014241.jpg
Germany,ad hoc Arena im Ernst-Abbe-Sportfeld,FC Carl Zeiss Jena,"Jena , Germany",15000,1924,,,50.91611,11.58306,ad-hoc-arena-im-ernst-abbe-sportfeld-1301.jpg
Germany,Jahnstadion Regensburg,SSV Jahn Regensburg,"Regensburg , Germany",15210,2015,,,48.99083,12.10722,jahnstadion-regensburg-91137650.jpg
Germany,DDV-Stadion,SG Dynamo Dresden,"Dresden, Germany",32085,1923,,1944,51.04028,13.74778,ddv-stadion-1284.jpg
Germany,Audi Sportpark,FC Ingolstadt 04,"Ingolstadt , Germany",15800,2010,,,48.74556,11.48556,audi-sportpark-29074562.jpg
Germany,Carl-Benz-Stadion,SV Waldhof Mannheim 07,"Mannheim , Germany",25667,1994,,,49.47944,8.5025,carl-benz-stadion-1338.jpg
Germany,Allianz Arena,FC Bayern München,"Munich , Germany",75024,2005,,,48.21889,11.62472,allianz-arena-8700726.jpg
Germany,Niederrheinstadion,Rot-Weiß Oberhausen,"Oberhausen , Germany",17165,1926,,,51.49361,6.85444,niederrheinstadion-1327.jpg
Germany,Merck Stadion am Böllenfalltor,SV Darmstadt 98,"Darmstadt , Germany",17810,1921,,,49.85778,8.67222,merck-stadion-am-bollenfalltor-1335.jpg
Germany,ESV-Stadion,FC Ingolstadt 04 II,"Ingolstadt , Germany",15800,2010,,,48.74556,11.48556,esv-stadion-91003338.jpg
Germany,Stadion am Bieberer Berg,Kickers Offenbach,"Offenbach am Main , Germany",20500,2012,,,50.09444,8.79861,stadion-am-bieberer-berg-1320.jpg
Germany,MDCC-Arena,1. FC Magdeburg,"Magdeburg , Germany",30098,2006,,,52.12556,11.67083,mdcc-arena-1282.jpg
Germany,Holstein-Stadion,Holstein Kiel,"Kiel , Germany",15034,1911,,,54.34917,10.12361,holstein-stadion-1310.jpg
Germany,WWK Arena,FC Augsburg,"Augsburg , Germany",30660,2009,,,48.32306,10.88611,wwk-arena-91000175.jpg
Germany,Hänsch-Arena,SV Meppen,"Meppen , Germany",13241,1924,,,52.708019,7.298025,hansch-arena-1337.jpg
Germany,WIRmachenDRUCK Arena,SG Sonnenhof Großaspach,"Aspach , Germany",10001,2011,,,48.980485,9.393005,wirmachendruck-arena-8700469.jpg
Germany,Ludwigsparkstadion,1. FC Saarbrücken,"Saarbrücken , Germany",16000,1953,,,49.2475,6.98417,ludwigsparkstadion-1288.jpg
Germany,Leuna-Chemie-Stadion,Hallescher FC,"Halle , Germany",15057,2011,,,51.46528,11.96194,leuna-chemie-stadion-91100189.jpg
Germany,Volksparkstadion,Hamburger SV,"Hamburg , Germany",57000,1953,,,53.58722,9.89861,volksparkstadion-1315.jpg
Germany,Millerntor-Stadion,FC St. Pauli,"Hamburg , Germany",29546,1963,,,53.554583,9.967667,millerntor-stadion-1312.jpg
Germany,Eilenriedestadion,Hannover 96 II,"Hanover , Germany",49000,1954,,,52.36,9.73111,eilenriedestadion-879317.jpg
Germany,Stadion An der Alten Försterei,1. FC Union Berlin,"Köpenick , Berlin, Germany",22012,1920,,,52.45722,13.56806,stadion-an-der-alten-forsterei-6000018.jpg
Germany,Grotenburg-Stadion,KFC Uerdingen 05,"Krefeld , Germany",34500,1927,,,51.33889,6.60361,grotenburg-stadion-1319.jpg
Germany,wohninvest WESERSTADION,SV Werder Bremen,"Bremen , Germany",42100,1947,,,53.06639,8.8375,wohninvest-weserstadion-1339.jpg
Germany,BBBank Wildpark,Karlsruher SC,"Karlsruhe , Germany",34302,1955,,,49.02,8.41306,bbbank-wildpark-1318.jpg
Ghana,Len Clay Stadium,Ashanti Gold Sporting Club,"Obuasi , Ghana",20000,1990,,,6.20861,-1.678,len-clay-stadium-105247.jpg
Ghana,Tarkwa-Nsueam Assembly Park,Medeama Sporting Club,"Tarkwa , Ghana",10000,,,,5.301,-1.9924,tarkwa-nsueam-assembly-park-13111494.jpg
Ghana,Agyemang Badu II Park,Aduana Stars,"Dormaa Ahenkro , Ghana",10000,,,,7.265222,-2.865361,agyemang-badu-ii-park-13113094.jpg
Ghana,Accra Sports Stadium (Ohene Djan Stadium),Hearts of Oak SC,"Accra , Ghana",40000,1961,,,5.55139,-0.19194,accra-sports-stadium-ohene-djan-stadium-103042.jpg
Ghana,Baba Yara Sports Stadium,Asante Kotoko SC,"Kumasi , Ghana",40528,1959,,,6.6826806,-1.6051111,baba-yara-sports-stadium-5390195.jpg
Greece,Zosimades,PAS Giannina,"Ioannina , Greece",7652,,,,,,zosimades-129680.jpg
Greece,Municipal Athletic Center of Katerini A',SFK Pierikos,"Katerini , Greece",4995,1964,,,40.2614,22.5119,municipal-athletic-center-of-katerini-a-687582.jpg
Greece,Grigorios Labrakis,Athens Kallithea FC,"Athens , Greece",6300,1970,,,37.9601,23.7151,grigorios-labrakis-129674.jpg
Greece,Stavros Mavrothalassitis,AO Aigaleo,"Athens , Greece",8217,,,,37.9871694,23.6760111,stavros-mavrothalassitis-129654.jpg
Greece,Toumba,AS PAOK Salonika,"Thessaloniki , Greece",28703,1959,,,40.61389,22.9725,toumba-1300556.jpg
Greece,Theodoros Kolokotronis,AGS Asteras Tripolis,"Tripoli , Greece",7423,,,,37.5025,22.38861,theodoros-kolokotronis-697604.jpg
Greece,Georgios Karaiskakis,Olympiacos SF Piraeus,"Piraeus , Greece",33334,,,,37.94611,23.66444,georgios-karaiskakis-1300548.jpg
Greece,Agia Sofia,AEK Athens,"Athens , Greece",32500,2022,,,38.0371,23.7414,agia-sofia-36087483.jpg
Greece,Panthessaliko,GS Niki Volou,"Volos , Greece",22189,,,,39.3875,22.93111,panthessaliko-687596.jpg
Greece,AEL FC Arena,AE Larisas,"Larissa , Greece",17118,2010,,,39.61561,22.39949,ael-fc-arena-36036395.jpg
Greece,Kleanthis Vikelidis,AS Aris Salonika,"Thessaloniki , Greece",22800,1951,,,40.6,22.96944,kleanthis-vikelidis-1300545.jpg
Greece,Municipal Stadium of Karditsa,AS Anagennisi Karditsas,"Karditsa , Greece",13000,,,,39.362552,21.935127,municipal-stadium-of-karditsa-687566.jpg
Greece,Panetolikos Ground,GFS Panetolikos,"Agrinio , Greece",7321,,,,38.63,21.41167,panetolikos-ground-687519.jpg
Greece,Municipal Stadium of Mytilini,AEPS Aiolikos Mytilinis,"Lesbos , Greece",3000,1960,,,39.0978194,26.5542667,municipal-stadium-of-mytilini-687586.jpg
Greece,Municipal Ground of Perivolia,PGS Kissamikos Chanion,"Chania , Crete , Greece",4527,,,,35.48725,24.0005556,municipal-ground-of-perivolia-129724.jpg
Greece,Georgios Kamaras,GS Apollon Smyrnis,"Athens , Greece",14200,1948,,,38.0281556,23.7410333,georgios-kamaras-4200032.jpg
Greece,Diagoras Stadium,GS Diagoras Rodou,"Rhodes , Greece",8500,1932,,,36.438228,28.228233,diagoras-stadium-687530.jpg
Greece,Municipal Stadium of Pyrgos,AO Panileiakos,"Pyrgos , Greece",6750,,,,37.679056,21.428222,municipal-stadium-of-pyrgos-1300564.jpg
Greece,Municipal Stadium of Veroia,Veria FC,"Veria , Greece",7000,1925,,,40.5341111,22.2023611,municipal-stadium-of-veroia-687528.jpg
Greece,Makedonikos Ground,AS Makedonikos Neapolis,"Thessaloniki , Greece",7500,,,,40.67778,22.95028,makedonikos-ground-684935.jpg
Greece,Municipal Stadium of Trikala,AO Trikala,"Trikala , Greece",15000,,,,39.55222,21.7775,municipal-stadium-of-trikala-129655.jpg
Greece,Theodoros Vardinogiannis,OFI Crete,"Heraklion , Greece",9833,1951,,,35.33806,25.11472,theodoros-vardinogiannis-1300552.jpg
Greece,Municipal Ground of Nikaia,AO Ionikos Nikaias,"Attica , Greece",4999,,,,37.9771222,23.635,municipal-ground-of-nikaia-1300549.jpg
Greece,Anthi Karagianni,AO Kavala,"Kavala , Greece",10550,,,,40.94694,24.43611,anthi-karagianni-1300557.jpg
Greece,Doxa Dramas Ground,GS Doxa Dramas,"Drama, Greece",7000,1953,,,41.151667,24.13625,doxa-dramas-ground-687529.jpg
Greece,Municipal Stadium of Kerkyra,AO Kerkyra,"Corfu , Greece",3000,,,,39.6113639,19.9158361,municipal-stadium-of-kerkyra-684328.jpg
Greece,Kaftanzogleio,GS Iraklis Salonika,"Thessaloniki , Greece",27560,1960,,,40.62556,22.96694,kaftanzogleio-1300550.jpg
Greece,Municipal Ground of Serres,MGS Panserraikos,"Serres , Greece",9500,,,,41.0847,23.5466,municipal-ground-of-serres-129679.jpg
Guadeloupe,Stade René Serge Nabajoth,,,7500,,,,16.269167,-61.508333,stade-rene-serge-nabajoth-82062599.jpg
Guatemala,Estadio Cementos Progreso,,"Guatemala City , Guatemala",17000,1991,,,14.6760778,-90.4885472,estadio-cementos-progreso-8827171.jpg
Guatemala,Doroteo Guamuch Flores,CSD Comunicaciones,"Guatemala City , Guatemala",26116,1950,,,14.6257639,-90.5104889,doroteo-guamuch-flores-103147.jpg
Guinea,Stade du 28 Septembre,Horoya Athletique Club,"Conakry , Guinea",25000,,,,9.545861,-13.672917,stade-du-28-septembre-103044.jpg
Guinea-Bissau,Estádio 24 de Setembro,,"Bissau , Guinea Bissau",20000,1989,,,11.843472,-15.59083,estadio-24-de-setembro-23017885.jpg
Haiti,Stade Sylvio Cator,Racing Club Haitien,"Port-au-Prince , Haiti",10500,1953,,,18.5360583,-72.3424417,stade-sylvio-cator-103159.jpg
Honduras,Estadio Francisco Morazán,CD Real España,San Pedro Sula Honduras,18000,1938,,,15.5075,-88.03333,estadio-francisco-morazan-308278.jpg
Honduras,Estadio Excelsior,CD Platense,"Puerto Cortés , Honduras",7910,,,,15.846856,-87.937794,estadio-excelsior-7720005.jpg
Honduras,Estadio Yankel Rosenthal,CD Marathón,"San Pedro Sula , Honduras",5500,2010,,,15.49556,-87.99917,estadio-yankel-rosenthal-87001966.jpg
Hungary,Puskás Aréna,,"Budapest , Hungary",67215,2019,,,47.5031757,19.094446,puskas-arena-102974.jpg
Hungary,Perutz Stadion,Pápa ELC,"Pápa , Hungary",5500,,,,47.3349,17.4741,perutz-stadion-7520452.jpg
Hungary,Fehérvári út,Paksi Futball Club,"Paks , Hungary",4671,1966,,,46.63361,18.8525,fehervari-ut-7521408.jpg
Hungary,Révész Géza utca,Siófok FC,"Siófok , Hungary",6500,1961,,,46.90917,18.06139,revesz-geza-utca-1300600.jpg
Hungary,Illovszky Rudolf Stadion,Vasas Futball Club,"Budapest, Hungary",5054,2019,,,47.536978,19.080473,illovszky-rudolf-stadion-1300591.jpg
Hungary,Bozsik Aréna,Budapest Honvéd Futball Club,"Budapest , Hungary",8370,2021,,,47.4425,19.155,bozsik-arena-1300587.jpg
Hungary,Budai II László Stadion,Rákospalotai Egyetértés Atlétikai Club,"Budapest , Hungary",10000,,,,47.561961,19.121329,budai-ii-laszlo-stadion-7520454.jpg
Hungary,Nagyerdei Stadion,Debreceni Vasutas Sport Club,"Debrecen , Hungary",20340,2014,,,47.55389,21.63333,nagyerdei-stadion-38037135.jpg
Hungary,Széktói Stadion,KTE,"Kecskemét , Hungary",6300,1962,,,46.90139,19.66889,szektoi-stadion-7520449.jpg
Hungary,Béke tér,Csepel Football Club,"Budapest , Hungary",12000,,,,,,beke-ter-1300582.jpg
Hungary,ZTE Aréna,ZTE Football Club,"Zalaegerszeg , Hungary",11200,2002,,,46.84861,16.84861,zte-arena-1300594.jpg
Hungary,Zsengellér Gyula Sporttelep,Ceglédi Vasutas Sportegyesület,"Cegléd , Hungary",4000,1926,,,47.18472,19.79278,zsengeller-gyula-sporttelep-38004837.jpg
Hungary,Ligeti Stadion,Vác FC,"Vác , Hungary",9000,1967,,,47.7675,19.13806,ligeti-stadion-1300593.jpg
Hungary,Rákóczi Stadion,Kaposvári Rákóczi FC,"Kaposvár , Hungary",6150,2004,,,46.356573,17.806038,rakoczi-stadion-7520448.jpg
Hungary,Városi Stadion (Mezőkövesd),Mezőkövesdi Zsóry FC,"Mezőkövesd , Hungary",4183,2016,,,47.8023,20.5673,varosi-stadion-mezokovesd-38004841.jpg
Hungary,Szentmarjay Tibor Városi Stadion,Eger SE,"Eger , Hungary",6000,1954,,,47.8945,20.3785,szentmarjay-tibor-varosi-stadion-38005648.jpg
Hungary,Groupama Aréna,Ferencvárosi Torna Club,"Ferencváros , Budapest , Hungary",23700,2014,,,47.47556,19.09528,groupama-arena-38037284.jpg
Hungary,Balmazújvárosi Városi Stadion,Balmazújvárosi FC,"Balmazújváros , Hungary",2435,,,,47.6115606548246,21.3490707385129,balmazujvarosi-varosi-stadion-38005238.jpg
Hungary,Haladás Sportkomplexum,Szombathelyi Haladás,"Szombathely , Hungary",8903,2017,,,47.234762,16.607117,haladas-sportkomplexum-1300586.jpg
Hungary,Várkerti Stadion,Kisvárda Master Good,"Kisvárda , Hungary",2850,2018,,,48.225434,22.087968,varkerti-stadion-38013480.jpg
